[
  {
    "title": "Ferme urbaine de Malakoff",
    "img": false,
    "slug": "ferme-urbaine-de-malakoff",
    "lat": "48.819555930925",
    "lng": "2.2994846425247",
    "list_typeprojet": ["ferme-urbaine-participative"],
    "list_typeactivite": [
      "animation",
      "compostage",
      "ecopaturage",
      "production"
    ],
    "list_techniqueprod": ["permaculture", "pleine-terre"],
    "list_typeprod": [
      "compost",
      "fleurs",
      "fruits",
      "herbes-aromatiques",
      "legumes",
      "maraichage-arboriculture"
    ],
    "cp": "92240",
    "ville": "Malakoff",
    "ouvertpublic": null,
    "prixsolidaires": "0",
    "hlm": null,
    "qpv": null
  },
  {
    "title": "Jardins familiaux de Sainte-Foix",
    "img": false,
    "slug": "jardins-familiaux-de-sainte-foix",
    "lat": "48.096655357585",
    "lng": "-1.7289733886719",
    "list_typeprojet": ["jardin-potager"],
    "list_typeactivite": ["production"],
    "list_techniqueprod": ["pleine-terre"],
    "list_typeprod": ["jardin-potager"],
    "cp": "35000",
    "ville": "Rennes",
    "ouvertpublic": "0",
    "prixsolidaires": null,
    "hlm": null,
    "qpv": null
  },
  {
    "title": "Jardins familiaux de la Pr\u00e9valaye",
    "img": false,
    "slug": "jardins-familiaux-de-la-prevalaye",
    "lat": "48.095623510601",
    "lng": "-1.7148537735234",
    "list_typeprojet": ["jardin-potager"],
    "list_typeactivite": ["production"],
    "list_techniqueprod": ["pleine-terre"],
    "list_typeprod": ["jardin-potager"],
    "cp": "35000",
    "ville": "Rennes",
    "ouvertpublic": "1",
    "prixsolidaires": null,
    "hlm": null,
    "qpv": null
  },
  {
    "title": "Jardins familiaux de Cleunay",
    "img": false,
    "slug": "jardins-familiaux-de-cleunay",
    "lat": "48.103398",
    "lng": "-1.706257",
    "list_typeprojet": ["jardin-potager"],
    "list_typeactivite": ["production"],
    "list_techniqueprod": ["pleine-terre"],
    "list_typeprod": ["jardin-potager"],
    "cp": "35000",
    "ville": "Rennes",
    "ouvertpublic": "1",
    "prixsolidaires": null,
    "hlm": null,
    "qpv": null
  },
  {
    "title": "Clairi\u00e8re Commune",
    "img": "https://www.observatoire-agriculture-urbaine.org/wp-content/uploads/2024/07/Logo APGR_d\u00e9tour\u00e9.png",
    "slug": "clairiere-commune",
    "lat": "48.097894979703",
    "lng": "-1.720175743103",
    "list_typeprojet": ["ferme-urbaine-participative"],
    "list_typeactivite": [
      "animation",
      "formation",
      "production",
      "vente-sur-place"
    ],
    "list_techniqueprod": ["autre", "biologique", "pleine-terre"],
    "list_typeprod": [
      "fruits",
      "herbes-aromatiques",
      "jardin-potager",
      "legumes",
      "maraichage-arboriculture",
      "plants"
    ],
    "cp": "35000",
    "ville": "Rennes",
    "ouvertpublic": "1",
    "prixsolidaires": "1",
    "hlm": "0",
    "qpv": "0"
  },
  {
    "title": "C 2Mains, l\u2019\u00e9Co.lieu de la transition \u00e9cologique",
    "img": "https://www.observatoire-agriculture-urbaine.org/wp-content/uploads/2024/07/LOGO-C2MAINS.png",
    "slug": "c-2mains-leco-lieu-de-la-transition-ecologique",
    "lat": "48.911525206675",
    "lng": "2.2351706319794",
    "list_typeprojet": ["jardin-potager"],
    "list_typeactivite": ["animation", "compostage", "insertion", "production"],
    "list_techniqueprod": ["aquaponie", "bacs-ou-pots", "hors-sol"],
    "list_typeprod": [
      "compost",
      "fleurs",
      "herbes-aromatiques",
      "jardin-potager",
      "legumes",
      "maraichage-arboriculture"
    ],
    "cp": "92700",
    "ville": "Colombes",
    "ouvertpublic": "1",
    "prixsolidaires": "1",
    "hlm": "0",
    "qpv": "0"
  },
  {
    "title": "Potager du Coin",
    "img": false,
    "slug": "potager-du-coin",
    "lat": "49.354440598542",
    "lng": "1.1474704693797",
    "list_typeprojet": ["jardin-potager"],
    "list_typeactivite": ["animation"],
    "list_techniqueprod": ["biologique", "permaculture", "pleine-terre"],
    "list_typeprod": [
      "fruits",
      "herbes-aromatiques",
      "jardin-potager",
      "legumes"
    ],
    "cp": "76520",
    "ville": "Gouy",
    "ouvertpublic": "1",
    "prixsolidaires": "0",
    "hlm": "0",
    "qpv": "0"
  },
  {
    "title": "Jardin IC Le P'tit Quineleu",
    "img": "https://www.observatoire-agriculture-urbaine.org/wp-content/uploads/2024/07/logo NEV jpeg.JPG",
    "slug": "jardin-ic-le-ptit-quineleu",
    "lat": "48.101423798087",
    "lng": "-1.6699057671555",
    "list_typeprojet": ["jardin-potager"],
    "list_typeactivite": ["animation", "production"],
    "list_techniqueprod": ["biologique", "pleine-terre"],
    "list_typeprod": [
      "compost",
      "fruits",
      "herbes-aromatiques",
      "houblon-et-vignes",
      "jardin-potager"
    ],
    "cp": "35000",
    "ville": "RENNES",
    "ouvertpublic": "1",
    "prixsolidaires": "0",
    "hlm": "0",
    "qpv": "0"
  },
  {
    "title": "Jardin de Plaisance Rennes",
    "img": "https://www.observatoire-agriculture-urbaine.org/wp-content/uploads/2024/07/20230809_095300.jpg",
    "slug": "jardin-de-plaisance-rennes",
    "lat": "48.123841361098",
    "lng": "-1.6770887374878",
    "list_typeprojet": ["jardin-potager"],
    "list_typeactivite": ["animation", "compostage", "production"],
    "list_techniqueprod": ["biologique", "permaculture", "pleine-terre"],
    "list_typeprod": [
      "compost",
      "fleurs",
      "fruits",
      "herbes-aromatiques",
      "jardin-potager",
      "legumes"
    ],
    "cp": "35000",
    "ville": "RENNES",
    "ouvertpublic": "1",
    "prixsolidaires": "0",
    "hlm": "0",
    "qpv": "0"
  },
  {
    "title": "Soci\u00e9t\u00e9 Protectrice des V\u00e9g\u00e9taux",
    "img": "https://www.observatoire-agriculture-urbaine.org/wp-content/uploads/2024/07/618F10A4-A47A-4BBE-BA72-037BB6FD0B22.png",
    "slug": "societe-protectrice-des-vegetaux",
    "lat": "45.717379608317",
    "lng": "4.8157278257181",
    "list_typeprojet": ["ferme-urbaine-specialisee"],
    "list_typeactivite": [
      "animation",
      "compostage",
      "conseil",
      "insertion",
      "production",
      "vente-sur-place"
    ],
    "list_techniqueprod": ["bacs-ou-pots", "hors-sol", "indoors"],
    "list_typeprod": ["compost", "fleurs", "plants"],
    "cp": "69600",
    "ville": "Oullins Pierre-B\u00e9nite",
    "ouvertpublic": "1",
    "prixsolidaires": "1",
    "hlm": "0",
    "qpv": "0"
  },
  {
    "title": "Culturotoits",
    "img": false,
    "slug": "culturotoits-2",
    "lat": "43.601600488122",
    "lng": "3.857847580277",
    "list_typeprojet": ["ferme-urbaine-specialisee"],
    "list_typeactivite": [
      "animation",
      "conseil",
      "formation",
      "insertion",
      "production",
      "vente-sur-place"
    ],
    "list_techniqueprod": ["hydroponie"],
    "list_typeprod": [
      "fleurs",
      "fruits",
      "herbes-aromatiques",
      "legumes",
      "maraichage-arboriculture",
      "micro-pousses"
    ],
    "cp": "34000",
    "ville": "Montpellier",
    "ouvertpublic": null,
    "prixsolidaires": null,
    "hlm": null,
    "qpv": null
  },
  {
    "title": "Jardins familiaux de la Bintinais",
    "img": false,
    "slug": "jardins-familiaux-de-la-bintinais",
    "lat": "48.07899645477",
    "lng": "-1.6628189380884",
    "list_typeprojet": ["jardin-potager"],
    "list_typeactivite": ["production"],
    "list_techniqueprod": ["pleine-terre"],
    "list_typeprod": ["jardin-potager"],
    "cp": "35200",
    "ville": "Rennes",
    "ouvertpublic": "1",
    "prixsolidaires": null,
    "hlm": null,
    "qpv": null
  },
  {
    "title": "Jardins familiaux de la Poterie",
    "img": false,
    "slug": "jardins-familiaux-de-la-poterie",
    "lat": "48.088012999573",
    "lng": "-1.6368985176086",
    "list_typeprojet": ["jardin-potager"],
    "list_typeactivite": ["production"],
    "list_techniqueprod": ["pleine-terre"],
    "list_typeprod": ["jardin-potager"],
    "cp": "35200",
    "ville": "Rennes",
    "ouvertpublic": null,
    "prixsolidaires": null,
    "hlm": null,
    "qpv": null
  },
  {
    "title": "Jardins suspendus",
    "img": "https://www.observatoire-agriculture-urbaine.org/wp-content/uploads/2024/07/facade-mce2.jpg",
    "slug": "jardins-suspendus",
    "lat": "48.10442220771",
    "lng": "-1.6740417480469",
    "list_typeprojet": ["jardin-potager"],
    "list_typeactivite": ["animation", "compostage", "conseil", "formation"],
    "list_techniqueprod": ["autre", "bacs-ou-pots"],
    "list_typeprod": [
      "compost",
      "fleurs",
      "fruits",
      "herbes-aromatiques",
      "jardin-potager",
      "legumes"
    ],
    "cp": "35000",
    "ville": "rennes",
    "ouvertpublic": "1",
    "prixsolidaires": "0",
    "hlm": "0",
    "qpv": "0"
  },
  {
    "title": "jardin des coopains",
    "img": false,
    "slug": "jardin-des-coopains",
    "lat": "48.89276890166",
    "lng": "2.3131528072539",
    "list_typeprojet": ["jardin-potager"],
    "list_typeactivite": ["animation", "compostage", "conseil", "production"],
    "list_techniqueprod": ["bacs-ou-pots", "permaculture"],
    "list_typeprod": [
      "compost",
      "fleurs",
      "fruits",
      "herbes-aromatiques",
      "houblon-et-vignes",
      "jardin-potager",
      "legumes",
      "maraichage-arboriculture"
    ],
    "cp": "75017",
    "ville": "75017 - PARIS 17",
    "ouvertpublic": "1",
    "prixsolidaires": "0",
    "hlm": "0",
    "qpv": "0"
  },
  {
    "title": "Jardin Armorique",
    "img": false,
    "slug": "jardin-armorique",
    "lat": "48.128646665521",
    "lng": "-1.679084329782",
    "list_typeprojet": ["jardin-potager"],
    "list_typeactivite": ["animation", "compostage", "production"],
    "list_techniqueprod": ["permaculture", "pleine-terre"],
    "list_typeprod": ["fruits", "jardin-potager", "legumes"],
    "cp": "35700",
    "ville": "RENNES",
    "ouvertpublic": "1",
    "prixsolidaires": "1",
    "hlm": "0",
    "qpv": "0"
  },
  {
    "title": "Ferme urbaine Flora Tristan",
    "img": "https://www.observatoire-agriculture-urbaine.org/wp-content/uploads/2024/06/Plan-de-travail-6-825x400.jpg",
    "slug": "ferme-urbaine-flora-tristan",
    "lat": "48.858549351036",
    "lng": "2.4047613408476",
    "list_typeprojet": ["ferme-urbaine-participative"],
    "list_typeactivite": ["animation", "compostage", "formation", "production"],
    "list_techniqueprod": ["aquaponie", "couche-de-terre", "hors-sol"],
    "list_typeprod": [
      "fleurs",
      "fruits",
      "herbes-aromatiques",
      "jardin-potager",
      "legumes",
      "maraichage-arboriculture",
      "plants"
    ],
    "cp": "75020",
    "ville": "Paris",
    "ouvertpublic": null,
    "prixsolidaires": null,
    "hlm": null,
    "qpv": null
  },
  {
    "title": "Ferme urbaine Pierre Mend\u00e8s France",
    "img": "https://www.observatoire-agriculture-urbaine.org/wp-content/uploads/2024/06/421569762_824254362840151_8360577369447776565_n.jpg",
    "slug": "ferme-urbaine-pierre-mendes-france",
    "lat": "48.868058",
    "lng": "2.41116",
    "list_typeprojet": ["ferme-urbaine-participative"],
    "list_typeactivite": ["animation", "compostage", "formation", "production"],
    "list_techniqueprod": ["pleine-terre"],
    "list_typeprod": [
      "fleurs",
      "fruits",
      "herbes-aromatiques",
      "houblon-et-vignes",
      "jardin-potager",
      "legumes",
      "maraichage-arboriculture",
      "plants"
    ],
    "cp": "75020",
    "ville": "Paris",
    "ouvertpublic": "0",
    "prixsolidaires": null,
    "hlm": "0",
    "qpv": "1"
  },
  {
    "title": "Les Jardins de la Beffe",
    "img": false,
    "slug": "les-jardins-de-la-beffe",
    "lat": "45.801640149423",
    "lng": "4.7303867340088",
    "list_typeprojet": ["jardin-potager"],
    "list_typeactivite": ["production"],
    "list_techniqueprod": ["biologique", "pleine-terre"],
    "list_typeprod": ["fruits", "jardin-potager", "legumes"],
    "cp": "69570",
    "ville": "Dardilly",
    "ouvertpublic": "1",
    "prixsolidaires": "0",
    "hlm": "0",
    "qpv": "0"
  },
  {
    "title": "Ferme et Jardin de la Cascade - K\u00ear ar Lammdour",
    "img": false,
    "slug": "ferme-et-jardin-de-la-cascade-ker-ar-lammdour",
    "lat": "47.9857329",
    "lng": "-4.1349438",
    "list_typeprojet": ["ferme-urbaine-specialisee"],
    "list_typeactivite": ["production"],
    "list_techniqueprod": ["pleine-terre"],
    "list_typeprod": ["maraichage-arboriculture"],
    "cp": "29000",
    "ville": "Quimper",
    "ouvertpublic": "0",
    "prixsolidaires": "0",
    "hlm": "0",
    "qpv": "0"
  },
  {
    "title": "Les pousses du part \u2019\u00e2ge",
    "img": false,
    "slug": "les-pousses-du-part-age",
    "lat": "48.097766003072",
    "lng": "-4.0021239145926",
    "list_typeprojet": ["jardin-potager"],
    "list_typeactivite": ["animation", "compostage", "production"],
    "list_techniqueprod": ["pleine-terre"],
    "list_typeprod": ["jardin-potager"],
    "cp": "29510",
    "ville": "briec",
    "ouvertpublic": "0",
    "prixsolidaires": "0",
    "hlm": "0",
    "qpv": "0"
  },
  {
    "title": "Jardins familiaux de Kroas ar Bleon",
    "img": false,
    "slug": "jardins-familiaux-de-kroas-ar-bleon",
    "lat": "47.977289807149",
    "lng": "-4.180029950332",
    "list_typeprojet": ["jardin-potager"],
    "list_typeactivite": ["production"],
    "list_techniqueprod": ["pleine-terre"],
    "list_typeprod": ["jardin-potager"],
    "cp": "29700",
    "ville": "Pluguffan",
    "ouvertpublic": "0",
    "prixsolidaires": "0",
    "hlm": "0",
    "qpv": "0"
  },
  {
    "title": "Jardins familiaux de la ferme du Braden",
    "img": false,
    "slug": "jardins-familiaux-de-la-ferme-du-braden",
    "lat": "47.980543219623",
    "lng": "-4.0816027485167",
    "list_typeprojet": ["jardin-potager"],
    "list_typeactivite": ["animation"],
    "list_techniqueprod": ["pleine-terre"],
    "list_typeprod": ["jardin-potager"],
    "cp": "29000",
    "ville": "Quimper",
    "ouvertpublic": "0",
    "prixsolidaires": "0",
    "hlm": "0",
    "qpv": "0"
  },
  {
    "title": "Jardins familiaux de Prat Ar Rouz",
    "img": false,
    "slug": "jardins-familiaux-de-prat-ar-rouz",
    "lat": "47.993041454708",
    "lng": "-4.1326348584763",
    "list_typeprojet": ["jardin-potager"],
    "list_typeactivite": ["production"],
    "list_techniqueprod": ["pleine-terre"],
    "list_typeprod": ["jardin-potager"],
    "cp": "29000",
    "ville": "Quimper",
    "ouvertpublic": "0",
    "prixsolidaires": "0",
    "hlm": "0",
    "qpv": "0"
  },
  {
    "title": "Jardin solidaire du Secours Catholique",
    "img": false,
    "slug": "jardin-solidaire-du-secours-catholique",
    "lat": "47.993206593543",
    "lng": "-4.092214246405",
    "list_typeprojet": ["jardin-potager"],
    "list_typeactivite": ["animation", "production"],
    "list_techniqueprod": ["pleine-terre"],
    "list_typeprod": ["jardin-potager"],
    "cp": "29000",
    "ville": "QUIMPER",
    "ouvertpublic": "0",
    "prixsolidaires": "0",
    "hlm": "0",
    "qpv": "0"
  },
  {
    "title": "Verger du Manoir",
    "img": false,
    "slug": "verger-du-manoir",
    "lat": "47.985247018615",
    "lng": "-4.1250442334197",
    "list_typeprojet": ["jardin-potager"],
    "list_typeactivite": ["animation", "production"],
    "list_techniqueprod": ["pleine-terre"],
    "list_typeprod": ["fruits", "jardin-potager"],
    "cp": "29000",
    "ville": "Quimper",
    "ouvertpublic": "0",
    "prixsolidaires": "0",
    "hlm": "0",
    "qpv": "0"
  },
  {
    "title": "Ehpad Korian les Tybilles",
    "img": false,
    "slug": "ehpad-korian-les-tybilles",
    "lat": "48.8195983162",
    "lng": "2.2326977548991",
    "list_typeprojet": ["jardin-potager"],
    "list_typeactivite": ["animation"],
    "list_techniqueprod": ["permaculture", "pleine-terre"],
    "list_typeprod": [
      "fleurs",
      "herbes-aromatiques",
      "jardin-potager",
      "legumes"
    ],
    "cp": "92190",
    "ville": "Meudon",
    "ouvertpublic": "0",
    "prixsolidaires": "0",
    "hlm": "0",
    "qpv": "0"
  },
  {
    "title": "Coteau du Braden",
    "img": false,
    "slug": "coteau-du-braden",
    "lat": "47.980593491497",
    "lng": "-4.0803377114886",
    "list_typeprojet": ["jardin-potager"],
    "list_typeactivite": ["animation", "production", "transformation"],
    "list_techniqueprod": ["pleine-terre"],
    "list_typeprod": ["houblon-et-vignes"],
    "cp": "29000",
    "ville": "Quimper",
    "ouvertpublic": "0",
    "prixsolidaires": "0",
    "hlm": "0",
    "qpv": "0"
  },
  {
    "title": "Potager du Parc du 11 novembre \u00e0 Villiers-sur-Marne",
    "img": false,
    "slug": "potager-du-parc-du-11-novembre-a-villiers-sur-marne",
    "lat": "48.83117698410899",
    "lng": "2.5461352010739895",
    "list_typeprojet": ["jardin-potager"],
    "list_typeactivite": ["animation", "compostage", "production"],
    "list_techniqueprod": ["bacs-ou-pots"],
    "list_typeprod": ["fleurs", "fruits", "herbes-aromatiques", "legumes"],
    "cp": "94350",
    "ville": "Villiers-sur-Marne",
    "ouvertpublic": "1",
    "prixsolidaires": "0",
    "hlm": "0",
    "qpv": "0"
  },
  {
    "title": "Jardin collectif du Parc Gervaise",
    "img": false,
    "slug": "jardin-collectif-du-parc-gervaise",
    "lat": "48.821918855325",
    "lng": "2.5484419623288",
    "list_typeprojet": ["jardin-potager"],
    "list_typeactivite": ["animation", "production"],
    "list_techniqueprod": ["pleine-terre"],
    "list_typeprod": [
      "fleurs",
      "fruits",
      "herbes-aromatiques",
      "jardin-potager",
      "legumes"
    ],
    "cp": "94350",
    "ville": "Villiers-sur-Marne",
    "ouvertpublic": "1",
    "prixsolidaires": "0",
    "hlm": "0",
    "qpv": "0"
  },
  {
    "title": "Potager du Parchamp",
    "img": false,
    "slug": "potager-du-parchamp-2",
    "lat": "48.846290385732",
    "lng": "2.2364687555486",
    "list_typeprojet": ["jardin-potager"],
    "list_typeactivite": ["animation", "production"],
    "list_techniqueprod": [],
    "list_typeprod": [],
    "cp": "92100",
    "ville": "Boulogne-Billancourt",
    "ouvertpublic": "1",
    "prixsolidaires": "0",
    "hlm": "0",
    "qpv": "0"
  },
  {
    "title": "Potager des Dominicaines",
    "img": false,
    "slug": "potager-des-dominicaines",
    "lat": "48.8300994",
    "lng": "2.2437487",
    "list_typeprojet": ["jardin-potager"],
    "list_typeactivite": [],
    "list_techniqueprod": [],
    "list_typeprod": [],
    "cp": "92100",
    "ville": "Boulogne-Billancourt",
    "ouvertpublic": "1",
    "prixsolidaires": "0",
    "hlm": "0",
    "qpv": "0"
  },
  {
    "title": "La Pergola des Jardiniers",
    "img": false,
    "slug": "la-pergola-des-jardiniers",
    "lat": "48.827961642498",
    "lng": "2.2319312745875",
    "list_typeprojet": ["jardin-potager"],
    "list_typeactivite": ["animation", "production"],
    "list_techniqueprod": ["couche-de-terre"],
    "list_typeprod": [
      "fleurs",
      "fruits",
      "herbes-aromatiques",
      "jardin-potager",
      "legumes"
    ],
    "cp": "92100",
    "ville": "Boulogne Billancourt",
    "ouvertpublic": "1",
    "prixsolidaires": "0",
    "hlm": "0",
    "qpv": "0"
  },
  {
    "title": "Ferme perch\u00e9e de Beaugrenelle",
    "img": false,
    "slug": "ferme-perchee-de-beaugrenelle",
    "lat": "48.84856",
    "lng": "2.282516",
    "list_typeprojet": ["ferme-urbaine-specialisee"],
    "list_typeactivite": ["production"],
    "list_techniqueprod": ["couche-de-terre"],
    "list_typeprod": ["fleurs", "herbes-aromatiques", "legumes"],
    "cp": "75018",
    "ville": "PARIS",
    "ouvertpublic": "0",
    "prixsolidaires": "0",
    "hlm": "0",
    "qpv": "0"
  },
  {
    "title": "Houblonni\u00e8re de la Villette",
    "img": "https://www.observatoire-agriculture-urbaine.org/wp-content/uploads/2024/05/IMG_20240418_125315.jpg",
    "slug": "houblonniere-de-la-villette",
    "lat": "48.892867656044",
    "lng": "2.3906834862606",
    "list_typeprojet": ["ferme-urbaine-participative"],
    "list_typeactivite": ["production"],
    "list_techniqueprod": ["biologique", "hors-sol", "permaculture"],
    "list_typeprod": ["houblon-et-vignes"],
    "cp": "75019",
    "ville": "Paris",
    "ouvertpublic": "0",
    "prixsolidaires": "0",
    "hlm": "0",
    "qpv": "0"
  },
  {
    "title": "Houblonni\u00e8re de la rue des Couronnes",
    "img": false,
    "slug": "houblonniere-de-la-rue-des-couronnes",
    "lat": "48.870216052626",
    "lng": "2.3863613021882",
    "list_typeprojet": ["ferme-urbaine-participative"],
    "list_typeactivite": ["production"],
    "list_techniqueprod": ["biologique", "permaculture"],
    "list_typeprod": ["houblon-et-vignes"],
    "cp": "75020",
    "ville": "Paris",
    "ouvertpublic": "0",
    "prixsolidaires": "0",
    "hlm": "0",
    "qpv": "0"
  },
  {
    "title": "Les Champs d'Elis\u00e9e",
    "img": "https://www.observatoire-agriculture-urbaine.org/wp-content/uploads/2024/04/307572153_474456008055122_3880244196705162881_n.jpg",
    "slug": "les-champs-delisee",
    "lat": "44.845539621823",
    "lng": "0.20644426345825",
    "list_typeprojet": ["jardin-potager"],
    "list_typeactivite": ["animation", "compostage", "conseil", "production"],
    "list_techniqueprod": ["pleine-terre"],
    "list_typeprod": ["fruits", "jardin-potager", "legumes", "plants"],
    "cp": "33220",
    "ville": "Port Sainte Foy et Ponchapt",
    "ouvertpublic": "0",
    "prixsolidaires": "0",
    "hlm": "0",
    "qpv": "0"
  },
  {
    "title": "Jardin partag\u00e9 du Parc du Morbras",
    "img": false,
    "slug": "jardin-partage-du-parc-du-morbras",
    "lat": "48.779164144529",
    "lng": "2.5264209703965",
    "list_typeprojet": ["jardin-potager"],
    "list_typeactivite": ["animation", "compostage", "production"],
    "list_techniqueprod": ["bacs-ou-pots", "permaculture", "pleine-terre"],
    "list_typeprod": [
      "fleurs",
      "fruits",
      "herbes-aromatiques",
      "jardin-potager",
      "legumes",
      "maraichage-arboriculture"
    ],
    "cp": "94370",
    "ville": "Sucy-en-Brie",
    "ouvertpublic": "1",
    "prixsolidaires": "0",
    "hlm": "0",
    "qpv": "0"
  },
  {
    "title": "Jardins familiaux de Verneuil-sur-Seine",
    "img": false,
    "slug": "jardins-familiaux-de-verneuil-sur-seine",
    "lat": "48.975949626361",
    "lng": "1.9790190670707",
    "list_typeprojet": ["jardin-potager"],
    "list_typeactivite": ["animation", "compostage", "production"],
    "list_techniqueprod": ["pleine-terre"],
    "list_typeprod": [],
    "cp": "78480",
    "ville": "Verneuil-sur-Seine",
    "ouvertpublic": "0",
    "prixsolidaires": "0",
    "hlm": "0",
    "qpv": "0"
  },
  {
    "title": "Pot'ager des 3 \u00e9tangs",
    "img": false,
    "slug": "potager-des-3-etangs",
    "lat": "48.988560517876",
    "lng": "1.970565402291",
    "list_typeprojet": ["jardin-potager"],
    "list_typeactivite": ["animation", "compostage", "production"],
    "list_techniqueprod": ["pleine-terre"],
    "list_typeprod": [],
    "cp": "78480",
    "ville": "Verneuil-sur-Seine",
    "ouvertpublic": "0",
    "prixsolidaires": "0",
    "hlm": "0",
    "qpv": "0"
  },
  {
    "title": "Jardin21",
    "img": "https://www.observatoire-agriculture-urbaine.org/wp-content/uploads/2024/04/Jardin21-Jour-LevietPhoto-072023-4327.jpg",
    "slug": "jardin21-3",
    "lat": "48.896298",
    "lng": "2.395827",
    "list_typeprojet": ["jardin-potager"],
    "list_typeactivite": ["animation", "conseil", "formation", "production"],
    "list_techniqueprod": [
      "bacs-ou-pots",
      "hors-sol",
      "permaculture",
      "pleine-terre"
    ],
    "list_typeprod": [
      "fleurs",
      "fruits",
      "herbes-aromatiques",
      "houblon-et-vignes",
      "jardin-potager",
      "legumes",
      "plants"
    ],
    "cp": "75019",
    "ville": "Paris",
    "ouvertpublic": "0",
    "prixsolidaires": "0",
    "hlm": "0",
    "qpv": "0"
  },
  {
    "title": "Jardin21",
    "img": "https://www.observatoire-agriculture-urbaine.org/wp-content/uploads/2024/04/Jardin21-Jour-LevietPhoto-072023-4327.jpg",
    "slug": "jardin21-2",
    "lat": "48.896298",
    "lng": "2.395827",
    "list_typeprojet": ["jardin-potager"],
    "list_typeactivite": ["animation", "conseil", "production"],
    "list_techniqueprod": [
      "bacs-ou-pots",
      "hors-sol",
      "permaculture",
      "pleine-terre"
    ],
    "list_typeprod": [
      "fleurs",
      "fruits",
      "herbes-aromatiques",
      "houblon-et-vignes",
      "jardin-potager",
      "legumes",
      "plants"
    ],
    "cp": "75019",
    "ville": "Paris",
    "ouvertpublic": "1",
    "prixsolidaires": "1",
    "hlm": "0",
    "qpv": "1"
  },
  {
    "title": "La Serre Symbiose - Serre mara\u00eech\u00e8re",
    "img": false,
    "slug": "la-serre-symbiose-serre-maraichere",
    "lat": "47.258933",
    "lng": "-1.574545",
    "list_typeprojet": ["ferme-urbaine-participative"],
    "list_typeactivite": ["animation", "production"],
    "list_techniqueprod": ["bacs-ou-pots"],
    "list_typeprod": ["jardin-potager", "legumes"],
    "cp": "44300",
    "ville": "Nantes",
    "ouvertpublic": "0",
    "prixsolidaires": "0",
    "hlm": "0",
    "qpv": "0"
  },
  {
    "title": "Comm'un jardin",
    "img": false,
    "slug": "commun-jardin-2",
    "lat": "48.889814",
    "lng": "2.363466",
    "list_typeprojet": ["jardin-potager"],
    "list_typeactivite": ["animation", "compostage", "formation"],
    "list_techniqueprod": [
      "bacs-ou-pots",
      "biologique",
      "couche-de-terre",
      "permaculture",
      "pleine-terre"
    ],
    "list_typeprod": ["herbes-aromatiques", "insectes", "jardin-potager"],
    "cp": "75018",
    "ville": "Paris",
    "ouvertpublic": "0",
    "prixsolidaires": "0",
    "hlm": "0",
    "qpv": "0"
  },
  {
    "title": "Le jardin de la Gare de Reuilly",
    "img": false,
    "slug": "le-jardin-de-la-gare-de-reuilly",
    "lat": "48.840488",
    "lng": "2.392507",
    "list_typeprojet": ["jardin-potager"],
    "list_typeactivite": ["animation", "compostage"],
    "list_techniqueprod": [
      "bacs-ou-pots",
      "biologique",
      "permaculture",
      "pleine-terre"
    ],
    "list_typeprod": ["jardin-potager"],
    "cp": "75012",
    "ville": "paris",
    "ouvertpublic": "0",
    "prixsolidaires": "0",
    "hlm": "0",
    "qpv": "0"
  },
  {
    "title": "Les fruits rouges de Montrouge",
    "img": false,
    "slug": "les-fruits-rouges-de-montrouge",
    "lat": "48.815002837234",
    "lng": "2.3289244404706",
    "list_typeprojet": ["jardin-potager"],
    "list_typeactivite": ["animation", "compostage", "production"],
    "list_techniqueprod": ["couche-de-terre", "permaculture", "pleine-terre"],
    "list_typeprod": ["fruits"],
    "cp": "92120",
    "ville": "Montrouge",
    "ouvertpublic": "0",
    "prixsolidaires": "0",
    "hlm": "0",
    "qpv": "0"
  },
  {
    "title": "13 Infuz'",
    "img": false,
    "slug": "13-infuz",
    "lat": "48.821346677575",
    "lng": "2.3501997965032",
    "list_typeprojet": ["ferme-urbaine-participative"],
    "list_typeactivite": [
      "animation",
      "compostage",
      "formation",
      "production",
      "vente-sur-place"
    ],
    "list_techniqueprod": [
      "bacs-ou-pots",
      "biologique",
      "couche-de-terre",
      "permaculture",
      "pleine-terre"
    ],
    "list_typeprod": ["herbes-aromatiques", "houblon-et-vignes"],
    "cp": "75013",
    "ville": "paris",
    "ouvertpublic": "0",
    "prixsolidaires": "0",
    "hlm": "0",
    "qpv": "0"
  },
  {
    "title": "Le jardin du Maillon",
    "img": false,
    "slug": "le-jardin-du-maillon",
    "lat": "49.041082103744",
    "lng": "2.0422552897714",
    "list_typeprojet": ["ferme-urbaine-participative"],
    "list_typeactivite": ["insertion", "production"],
    "list_techniqueprod": ["pleine-terre"],
    "list_typeprod": ["fruits", "legumes"],
    "cp": "95000",
    "ville": "Cergy",
    "ouvertpublic": "1",
    "prixsolidaires": "1",
    "hlm": "0",
    "qpv": "0"
  },
  {
    "title": "Mon Epicerie Locale et Solidaire",
    "img": false,
    "slug": "mon-epicerie-locale-et-solidaire",
    "lat": "48.896122914579",
    "lng": "2.1978827996687",
    "list_typeprojet": ["jardin-potager"],
    "list_typeactivite": ["animation", "production", "vente-sur-place"],
    "list_techniqueprod": ["pleine-terre"],
    "list_typeprod": ["fruits", "legumes"],
    "cp": "92000",
    "ville": "nanterre",
    "ouvertpublic": "1",
    "prixsolidaires": "1",
    "hlm": "0",
    "qpv": "0"
  },
  {
    "title": "Dunes Fertiles",
    "img": "https://www.observatoire-agriculture-urbaine.org/wp-content/uploads/2024/02/logo.jpg",
    "slug": "dunes-fertiles",
    "lat": "46.154619",
    "lng": "-1.119216",
    "list_typeprojet": ["ferme-urbaine-specialisee"],
    "list_typeactivite": [
      "animation",
      "insertion",
      "production",
      "vente-sur-place"
    ],
    "list_techniqueprod": ["permaculture", "pleine-terre"],
    "list_typeprod": [
      "fleurs",
      "fruits",
      "herbes-aromatiques",
      "maraichage-arboriculture"
    ],
    "cp": "17000",
    "ville": "la rochelle",
    "ouvertpublic": "0",
    "prixsolidaires": "1",
    "hlm": "0",
    "qpv": "1"
  },
  {
    "title": "Le jardin R\u00eaV\u00e9",
    "img": false,
    "slug": "le-jardin-reve",
    "lat": "44.849817",
    "lng": "-0.507641",
    "list_typeprojet": ["jardin-potager"],
    "list_typeactivite": ["animation", "compostage", "conseil", "production"],
    "list_techniqueprod": ["bacs-ou-pots", "biologique", "permaculture"],
    "list_typeprod": [
      "herbes-aromatiques",
      "jardin-potager",
      "legumes",
      "plants"
    ],
    "cp": "33150",
    "ville": "Cenon",
    "ouvertpublic": "1",
    "prixsolidaires": "0",
    "hlm": "0",
    "qpv": "1"
  },
  {
    "title": "Potager Fresch'Heure",
    "img": "https://www.observatoire-agriculture-urbaine.org/wp-content/uploads/2024/02/NVC_LOGO_FINAL.png",
    "slug": "potager-freschheure",
    "lat": "47.248445",
    "lng": "-1.552352",
    "list_typeprojet": ["jardin-potager"],
    "list_typeactivite": ["animation", "conseil"],
    "list_techniqueprod": ["permaculture"],
    "list_typeprod": [
      "fruits",
      "herbes-aromatiques",
      "jardin-potager",
      "legumes"
    ],
    "cp": "44300",
    "ville": "Nantes",
    "ouvertpublic": "1",
    "prixsolidaires": "0",
    "hlm": "0",
    "qpv": "0"
  },
  {
    "title": "Le wagon vert",
    "img": "https://www.observatoire-agriculture-urbaine.org/wp-content/uploads/2024/02/Profil_Vert.png",
    "slug": "le-wagon-vert",
    "lat": "44.796953",
    "lng": "-0.556279",
    "list_typeprojet": ["ferme-urbaine-specialisee"],
    "list_typeactivite": ["animation", "compostage", "production"],
    "list_techniqueprod": ["permaculture", "pleine-terre"],
    "list_typeprod": [
      "fruits",
      "herbes-aromatiques",
      "houblon-et-vignes",
      "jardin-potager",
      "legumes",
      "plants"
    ],
    "cp": "33130",
    "ville": "B\u00e8gles",
    "ouvertpublic": "0",
    "prixsolidaires": "0",
    "hlm": "0",
    "qpv": "0"
  },
  {
    "title": "Jardin partag\u00e9 \u00ab Gustave Flourens \u00bb",
    "img": false,
    "slug": "jardin-partage-gustave-flourens-2",
    "lat": "47.229907251197",
    "lng": "2.0583061330969",
    "list_typeprojet": ["jardin-potager"],
    "list_typeactivite": [],
    "list_techniqueprod": [],
    "list_typeprod": [],
    "cp": "18100",
    "ville": "Vierzon",
    "ouvertpublic": "1",
    "prixsolidaires": "0",
    "hlm": "0",
    "qpv": "0"
  },
  {
    "title": "Jardin partag\u00e9 \u00ab Tunnel-Ch\u00e2teau \u00bb",
    "img": false,
    "slug": "jardin-partage-tunnel-chateau-2",
    "lat": "47.22282526792",
    "lng": "2.072194424109",
    "list_typeprojet": ["jardin-potager"],
    "list_typeactivite": [],
    "list_techniqueprod": [],
    "list_typeprod": [],
    "cp": "18100",
    "ville": "Vierzon",
    "ouvertpublic": "1",
    "prixsolidaires": "0",
    "hlm": "0",
    "qpv": "0"
  },
  {
    "title": "Jardin partag\u00e9 \u00ab Eglise Notre-Dame \u00bb",
    "img": false,
    "slug": "jardin-partage-eglise-notre-dame-2",
    "lat": "47.221491825724",
    "lng": "2.0717005933415",
    "list_typeprojet": ["jardin-potager"],
    "list_typeactivite": [],
    "list_techniqueprod": [],
    "list_typeprod": [],
    "cp": "18100",
    "ville": "Vierzon",
    "ouvertpublic": "1",
    "prixsolidaires": "0",
    "hlm": "0",
    "qpv": "0"
  },
  {
    "title": "Jardin partag\u00e9 \u00ab Manh\u00e8s \u00bb",
    "img": false,
    "slug": "jardin-partage-manhes-2",
    "lat": "47.223349891722",
    "lng": "2.0776834071766",
    "list_typeprojet": ["jardin-potager"],
    "list_typeactivite": [],
    "list_techniqueprod": [],
    "list_typeprod": [],
    "cp": "18100",
    "ville": "Vierzon",
    "ouvertpublic": "1",
    "prixsolidaires": "1",
    "hlm": "0",
    "qpv": "0"
  },
  {
    "title": "Ecop\u00f4le alimentaire de la Chaponni\u00e8re",
    "img": false,
    "slug": "ecopole-alimentaire-de-la-chaponniere-2",
    "lat": "47.201172722487",
    "lng": "2.0275353384018",
    "list_typeprojet": ["ferme-urbaine-participative"],
    "list_typeactivite": [],
    "list_techniqueprod": [],
    "list_typeprod": [],
    "cp": "18100",
    "ville": "Saint-Hilaire-de-Court",
    "ouvertpublic": "1",
    "prixsolidaires": "0",
    "hlm": "0",
    "qpv": "0"
  },
  {
    "title": "La Friche Malesherbes",
    "img": "https://www.observatoire-agriculture-urbaine.org/wp-content/uploads/2024/01/E0FF5540-78E7-4086-BA35-FEA500C3B600.PNG",
    "slug": "la-friche-malesherbes",
    "lat": "48.892706",
    "lng": "2.304633",
    "list_typeprojet": ["ferme-urbaine-participative"],
    "list_typeactivite": [
      "animation",
      "compostage",
      "conseil",
      "formation",
      "vente-sur-place"
    ],
    "list_techniqueprod": [
      "bacs-ou-pots",
      "couche-de-terre",
      "hors-sol",
      "permaculture"
    ],
    "list_typeprod": ["fleurs", "herbes-aromatiques", "plants"],
    "cp": "75017",
    "ville": "PARIS",
    "ouvertpublic": "0",
    "prixsolidaires": "1",
    "hlm": "1",
    "qpv": "0"
  },
  {
    "title": "Le jardin proMeTteur",
    "img": "https://www.observatoire-agriculture-urbaine.org/wp-content/uploads/2024/01/20230703_120345.jpg",
    "slug": "le-jardin-prometteur",
    "lat": "48.780298",
    "lng": "1.822615",
    "list_typeprojet": ["jardin-potager"],
    "list_typeactivite": ["production"],
    "list_techniqueprod": ["permaculture"],
    "list_typeprod": ["jardin-potager", "miel"],
    "cp": "78490",
    "ville": "Montfort-l'Amaury",
    "ouvertpublic": "0",
    "prixsolidaires": "0",
    "hlm": "0",
    "qpv": "0"
  },
  {
    "title": "Le Potager du Toit",
    "img": "https://www.observatoire-agriculture-urbaine.org/wp-content/uploads/2024/01/E0FF5540-78E7-4086-BA35-FEA500C3B600.PNG",
    "slug": "le-potager-du-toit",
    "lat": "48.859403",
    "lng": "2.27702",
    "list_typeprojet": ["ferme-urbaine-participative", "jardin-potager"],
    "list_typeactivite": ["animation", "conseil", "formation", "production"],
    "list_techniqueprod": ["bacs-ou-pots", "hors-sol", "permaculture"],
    "list_typeprod": ["herbes-aromatiques", "plants"],
    "cp": "75016",
    "ville": "PARIS",
    "ouvertpublic": "1",
    "prixsolidaires": "1",
    "hlm": "1",
    "qpv": "0"
  },
  {
    "title": "Jardin-for\u00eat de l'Espace Jean Zay - Chalon sur Sa\u00f4ne",
    "img": "https://www.observatoire-agriculture-urbaine.org/wp-content/uploads/2023/12/Bois Gourmand du Chalonnais.jpg",
    "slug": "jardin-foret-de-lespace-jean-zay",
    "lat": "46.797587",
    "lng": "4.866845",
    "list_typeprojet": ["jardin-potager"],
    "list_typeactivite": ["animation", "insertion", "production"],
    "list_techniqueprod": ["permaculture", "pleine-terre"],
    "list_typeprod": [
      "fleurs",
      "fruits",
      "herbes-aromatiques",
      "houblon-et-vignes",
      "jardin-potager",
      "legumes",
      "maraichage-arboriculture",
      "plants"
    ],
    "cp": "71100",
    "ville": "Chalon sur Sa\u00f4ne",
    "ouvertpublic": "1",
    "prixsolidaires": "0",
    "hlm": "0",
    "qpv": "1"
  },
  {
    "title": "Promenade Jean Moulin",
    "img": false,
    "slug": "promenade-jean-moulin",
    "lat": "48.80825",
    "lng": "2.354184",
    "list_typeprojet": ["jardin-potager"],
    "list_typeactivite": ["compostage", "production"],
    "list_techniqueprod": ["biologique", "pleine-terre"],
    "list_typeprod": ["jardin-potager"],
    "cp": "94270",
    "ville": "Le Kremlin-Bic\u00eatre",
    "ouvertpublic": "1",
    "prixsolidaires": "0",
    "hlm": "0",
    "qpv": "0"
  },
  {
    "title": "Jardin de la clinique Pasteur",
    "img": false,
    "slug": "jardin-de-la-clinique-pasteur",
    "lat": "43.595245",
    "lng": "1.417243",
    "list_typeprojet": ["jardin-potager"],
    "list_typeactivite": [],
    "list_techniqueprod": [],
    "list_typeprod": [],
    "cp": "31000",
    "ville": "Toulouse",
    "ouvertpublic": "",
    "prixsolidaires": "",
    "hlm": "0",
    "qpv": "0"
  },
  {
    "title": "Jardin Eleven",
    "img": false,
    "slug": "jardin-eleven",
    "lat": "43.599454",
    "lng": "1.369238",
    "list_typeprojet": ["jardin-potager"],
    "list_typeactivite": [],
    "list_techniqueprod": [],
    "list_typeprod": [],
    "cp": "31300",
    "ville": "Toulouse",
    "ouvertpublic": "",
    "prixsolidaires": "",
    "hlm": "0",
    "qpv": "0"
  },
  {
    "title": "Jardin Rixens",
    "img": false,
    "slug": "jardin-rixens",
    "lat": "43.625312",
    "lng": "1.45212",
    "list_typeprojet": ["jardin-potager"],
    "list_typeactivite": [],
    "list_techniqueprod": [],
    "list_typeprod": [],
    "cp": "31200",
    "ville": "Toulouse",
    "ouvertpublic": "",
    "prixsolidaires": "",
    "hlm": "0",
    "qpv": "0"
  },
  {
    "title": "Jardin du Petit Train",
    "img": false,
    "slug": "jardin-du-petit-train",
    "lat": "43.567772",
    "lng": "1.29449",
    "list_typeprojet": ["jardin-potager"],
    "list_typeactivite": [],
    "list_techniqueprod": [],
    "list_typeprod": [],
    "cp": "31424",
    "ville": "Plaisance du Touch",
    "ouvertpublic": "",
    "prixsolidaires": "",
    "hlm": "0",
    "qpv": "0"
  },
  {
    "title": "Jardin des Soupirs",
    "img": false,
    "slug": "jardin-des-soupirs-2",
    "lat": "43.595158",
    "lng": "1.45491",
    "list_typeprojet": ["jardin-potager"],
    "list_typeactivite": [],
    "list_techniqueprod": [],
    "list_typeprod": [],
    "cp": "31400",
    "ville": "Toulouse",
    "ouvertpublic": "",
    "prixsolidaires": "",
    "hlm": "0",
    "qpv": "0"
  },
  {
    "title": "Jardin de la r\u00e9sidence du Bogey",
    "img": false,
    "slug": "jardin-de-la-residence-du-bogey-2",
    "lat": "43.566845",
    "lng": "1.368977",
    "list_typeprojet": ["jardin-potager"],
    "list_typeactivite": [],
    "list_techniqueprod": [],
    "list_typeprod": [],
    "cp": "31100",
    "ville": "Toulouse",
    "ouvertpublic": "",
    "prixsolidaires": "",
    "hlm": "0",
    "qpv": "0"
  },
  {
    "title": "Jardin de la Villa Rostang",
    "img": false,
    "slug": "jardin-de-la-villa-rostang",
    "lat": "43.644097",
    "lng": "1.460701",
    "list_typeprojet": ["jardin-potager"],
    "list_typeactivite": [],
    "list_techniqueprod": [],
    "list_typeprod": [],
    "cp": "31200",
    "ville": "Toulouse",
    "ouvertpublic": "",
    "prixsolidaires": "",
    "hlm": "0",
    "qpv": "0"
  },
  {
    "title": "potager urbain de Bel- Air",
    "img": false,
    "slug": "potager-urbain-de-bel-air",
    "lat": "46.589794",
    "lng": "0.325443",
    "list_typeprojet": ["jardin-potager"],
    "list_typeactivite": [],
    "list_techniqueprod": [],
    "list_typeprod": [],
    "cp": "86000",
    "ville": "Poitiers",
    "ouvertpublic": "",
    "prixsolidaires": "",
    "hlm": "0",
    "qpv": "0"
  },
  {
    "title": "potager urbain de Montbernage",
    "img": false,
    "slug": "potager-urbain-de-montbernage",
    "lat": "46.570272",
    "lng": "0.332735",
    "list_typeprojet": ["jardin-potager"],
    "list_typeactivite": [],
    "list_techniqueprod": [],
    "list_typeprod": [],
    "cp": "86000",
    "ville": "Poitiers",
    "ouvertpublic": "",
    "prixsolidaires": "",
    "hlm": "0",
    "qpv": "0"
  },
  {
    "title": "potager urbain des Couronneries",
    "img": false,
    "slug": "potager-urbain-des-couronneries",
    "lat": "46.591729",
    "lng": "0.353188",
    "list_typeprojet": ["jardin-potager"],
    "list_typeactivite": [],
    "list_techniqueprod": [],
    "list_typeprod": [],
    "cp": "86000",
    "ville": "Poitiers",
    "ouvertpublic": "",
    "prixsolidaires": "",
    "hlm": "0",
    "qpv": "0"
  },
  {
    "title": "jardin Pourquoi pas la ruche",
    "img": false,
    "slug": "jardin-pourquoi-pas-la-ruche",
    "lat": "46.565425",
    "lng": "0.34143",
    "list_typeprojet": ["jardin-potager"],
    "list_typeactivite": [],
    "list_techniqueprod": [],
    "list_typeprod": [],
    "cp": "86000",
    "ville": "Poitiers",
    "ouvertpublic": "",
    "prixsolidaires": "",
    "hlm": "0",
    "qpv": "0"
  },
  {
    "title": "potager des sablonni\u00e8res",
    "img": false,
    "slug": "potager-des-sablonnieres",
    "lat": "46.567239",
    "lng": "0.338398",
    "list_typeprojet": ["jardin-potager"],
    "list_typeactivite": [],
    "list_techniqueprod": [],
    "list_typeprod": [],
    "cp": "86000",
    "ville": "Poitiers",
    "ouvertpublic": "",
    "prixsolidaires": "",
    "hlm": "0",
    "qpv": "0"
  },
  {
    "title": "jardin AFP France Handicap",
    "img": false,
    "slug": "jardin-afp-france-handicap",
    "lat": "46.586968",
    "lng": "0.364498",
    "list_typeprojet": ["jardin-potager"],
    "list_typeactivite": [],
    "list_techniqueprod": [],
    "list_typeprod": [],
    "cp": "86000",
    "ville": "Poitiers",
    "ouvertpublic": "",
    "prixsolidaires": "",
    "hlm": "0",
    "qpv": "0"
  },
  {
    "title": "Jardins familiaux de la Piquetterie",
    "img": false,
    "slug": "jardins-familiaux-de-la-piquetterie",
    "lat": "46.562848",
    "lng": "0.340819",
    "list_typeprojet": ["jardin-potager"],
    "list_typeactivite": [],
    "list_techniqueprod": [],
    "list_typeprod": [],
    "cp": "86000",
    "ville": "Poitiers",
    "ouvertpublic": "",
    "prixsolidaires": "",
    "hlm": "0",
    "qpv": "0"
  },
  {
    "title": "Jardins familiaux du Champs de la F\u00e9d\u00e9ration",
    "img": false,
    "slug": "jardins-familiaux-du-champs-de-la-federation",
    "lat": "46.61647",
    "lng": "0.354782",
    "list_typeprojet": ["jardin-potager"],
    "list_typeactivite": [],
    "list_techniqueprod": [],
    "list_typeprod": [],
    "cp": "86000",
    "ville": "Poitiers",
    "ouvertpublic": "",
    "prixsolidaires": "",
    "hlm": "0",
    "qpv": "0"
  },
  {
    "title": "Jardins de ciboulette et papillon",
    "img": false,
    "slug": "jardins-de-ciboulette-et-papillon",
    "lat": "46.593071",
    "lng": "0.3167",
    "list_typeprojet": ["jardin-potager"],
    "list_typeactivite": [],
    "list_techniqueprod": [],
    "list_typeprod": [],
    "cp": "86000",
    "ville": "Poitiers",
    "ouvertpublic": "",
    "prixsolidaires": "",
    "hlm": "0",
    "qpv": "0"
  },
  {
    "title": "Jardins familiaux de Poitiers Sud",
    "img": false,
    "slug": "jardins-familiaux-de-poitiers-sud",
    "lat": "46.570525",
    "lng": "0.313502",
    "list_typeprojet": ["jardin-potager"],
    "list_typeactivite": [],
    "list_techniqueprod": [],
    "list_typeprod": [],
    "cp": "86000",
    "ville": "Poitiers",
    "ouvertpublic": "",
    "prixsolidaires": "",
    "hlm": "0",
    "qpv": "0"
  },
  {
    "title": "Jardins familiaux du Champs de la Caille",
    "img": false,
    "slug": "jardins-familiaux-du-champs-de-la-caille",
    "lat": "46.556713",
    "lng": "0.34242",
    "list_typeprojet": ["jardin-potager"],
    "list_typeactivite": [],
    "list_techniqueprod": [],
    "list_typeprod": [],
    "cp": "86280",
    "ville": "Saint-Beno\u00eet",
    "ouvertpublic": "",
    "prixsolidaires": "",
    "hlm": "0",
    "qpv": "0"
  },
  {
    "title": "Les mains vertes des Couronneries",
    "img": false,
    "slug": "les-mains-vertes-des-couronneries",
    "lat": "46.585284",
    "lng": "0.358597",
    "list_typeprojet": ["jardin-potager"],
    "list_typeactivite": [],
    "list_techniqueprod": [],
    "list_typeprod": [],
    "cp": "86000",
    "ville": "Poitiers",
    "ouvertpublic": "",
    "prixsolidaires": "",
    "hlm": "0",
    "qpv": "0"
  },
  {
    "title": "Le jardin du Bon Pasteur",
    "img": false,
    "slug": "le-jardin-du-bon-pasteur",
    "lat": "46.582725",
    "lng": "0.349371",
    "list_typeprojet": ["jardin-potager"],
    "list_typeactivite": [],
    "list_techniqueprod": [],
    "list_typeprod": [],
    "cp": "86000",
    "ville": "Poitiers",
    "ouvertpublic": "",
    "prixsolidaires": "",
    "hlm": "0",
    "qpv": "0"
  },
  {
    "title": "Les jardins de la Cassette",
    "img": false,
    "slug": "les-jardins-de-la-cassette",
    "lat": "46.571996",
    "lng": "0.310626",
    "list_typeprojet": ["jardin-potager"],
    "list_typeactivite": [],
    "list_techniqueprod": [],
    "list_typeprod": [],
    "cp": "86580",
    "ville": "Biard",
    "ouvertpublic": "",
    "prixsolidaires": "",
    "hlm": "0",
    "qpv": "0"
  },
  {
    "title": "Jardins Familiaux du Mas Rouge",
    "img": false,
    "slug": "jardins-familiaux-du-mas-rouge",
    "lat": "43.5913762",
    "lng": "3.9191554",
    "list_typeprojet": ["jardin-potager"],
    "list_typeactivite": [],
    "list_techniqueprod": [],
    "list_typeprod": [],
    "cp": "34970",
    "ville": "Lattes",
    "ouvertpublic": "",
    "prixsolidaires": "",
    "hlm": "0",
    "qpv": "0"
  },
  {
    "title": "De Sauret",
    "img": false,
    "slug": "de-sauret",
    "lat": "43.622503",
    "lng": "3.895681",
    "list_typeprojet": ["jardin-potager"],
    "list_typeactivite": [],
    "list_techniqueprod": [],
    "list_typeprod": [],
    "cp": "34000",
    "ville": "Montpellier",
    "ouvertpublic": "",
    "prixsolidaires": "",
    "hlm": "0",
    "qpv": "0"
  },
  {
    "title": "Jardin les Maguelone",
    "img": false,
    "slug": "jardin-les-maguelone",
    "lat": "43.535005",
    "lng": "3.870098",
    "list_typeprojet": ["jardin-potager"],
    "list_typeactivite": [],
    "list_techniqueprod": [],
    "list_typeprod": [],
    "cp": "34750",
    "ville": "Villeneuve-l\u00e8s-Maguelone",
    "ouvertpublic": "",
    "prixsolidaires": "",
    "hlm": "0",
    "qpv": "0"
  },
  {
    "title": "Jadin partag\u00e9 M\u00e9lina Mercouri",
    "img": false,
    "slug": "jadin-partage-melina-mercouri",
    "lat": "43.6135593",
    "lng": "3.9085364",
    "list_typeprojet": ["jardin-potager"],
    "list_typeactivite": [],
    "list_techniqueprod": [],
    "list_typeprod": [],
    "cp": "",
    "ville": "",
    "ouvertpublic": "",
    "prixsolidaires": "",
    "hlm": "0",
    "qpv": "0"
  },
  {
    "title": "Jardin de l'espoir",
    "img": false,
    "slug": "jardin-de-lespoir",
    "lat": "43.695437",
    "lng": "3.994062",
    "list_typeprojet": ["jardin-potager"],
    "list_typeactivite": [],
    "list_techniqueprod": [],
    "list_typeprod": [],
    "cp": "",
    "ville": "",
    "ouvertpublic": "",
    "prixsolidaires": "",
    "hlm": "0",
    "qpv": "0"
  },
  {
    "title": "Jardin partag\u00e9 Bashung",
    "img": false,
    "slug": "jardin-partage-bashung",
    "lat": "43.5931490",
    "lng": "3.8834152",
    "list_typeprojet": ["jardin-potager"],
    "list_typeactivite": [],
    "list_techniqueprod": [],
    "list_typeprod": [],
    "cp": "",
    "ville": "",
    "ouvertpublic": "",
    "prixsolidaires": "",
    "hlm": "0",
    "qpv": "0"
  },
  {
    "title": "Jardin partag\u00e9 Clemenceau",
    "img": false,
    "slug": "jardin-partage-clemenceau",
    "lat": "43.6046345",
    "lng": "3.8712041",
    "list_typeprojet": ["jardin-potager"],
    "list_typeactivite": [],
    "list_techniqueprod": [],
    "list_typeprod": [],
    "cp": "",
    "ville": "",
    "ouvertpublic": "",
    "prixsolidaires": "",
    "hlm": "0",
    "qpv": "0"
  },
  {
    "title": "Jardin partag\u00e9 de la Carriera",
    "img": false,
    "slug": "jardin-partage-de-la-carriera",
    "lat": "43.6405464",
    "lng": "3.8178527",
    "list_typeprojet": ["jardin-potager"],
    "list_typeactivite": [],
    "list_techniqueprod": [],
    "list_typeprod": [],
    "cp": "",
    "ville": "",
    "ouvertpublic": "",
    "prixsolidaires": "",
    "hlm": "0",
    "qpv": "0"
  },
  {
    "title": "Jardin partag\u00e9 du Lemasson",
    "img": false,
    "slug": "jardin-partage-du-lemasson",
    "lat": "43.5927454",
    "lng": "3.8734230",
    "list_typeprojet": ["jardin-potager"],
    "list_typeactivite": [],
    "list_techniqueprod": [],
    "list_typeprod": [],
    "cp": "",
    "ville": "",
    "ouvertpublic": "",
    "prixsolidaires": "",
    "hlm": "0",
    "qpv": "0"
  },
  {
    "title": "Jardin partag\u00e9 du P\u00e8re Bonnet",
    "img": false,
    "slug": "jardin-partage-du-pere-bonnet",
    "lat": "43.6068825",
    "lng": "3.8661504",
    "list_typeprojet": ["jardin-potager"],
    "list_typeactivite": [],
    "list_techniqueprod": [],
    "list_typeprod": [],
    "cp": "",
    "ville": "",
    "ouvertpublic": "",
    "prixsolidaires": "",
    "hlm": "0",
    "qpv": "0"
  },
  {
    "title": "Jardin partag\u00e9 Fran\u00e7ois Villon",
    "img": false,
    "slug": "jardin-partage-francois-villon",
    "lat": "43.6156447",
    "lng": "3.8396128",
    "list_typeprojet": ["jardin-potager"],
    "list_typeactivite": [],
    "list_techniqueprod": [],
    "list_typeprod": [],
    "cp": "",
    "ville": "",
    "ouvertpublic": "",
    "prixsolidaires": "",
    "hlm": "0",
    "qpv": "0"
  },
  {
    "title": "Jardin partag\u00e9 Jupiter",
    "img": false,
    "slug": "jardin-partage-jupiter",
    "lat": "43.6249882",
    "lng": "3.8191145",
    "list_typeprojet": ["jardin-potager"],
    "list_typeactivite": [],
    "list_techniqueprod": [],
    "list_typeprod": [],
    "cp": "",
    "ville": "",
    "ouvertpublic": "",
    "prixsolidaires": "",
    "hlm": "0",
    "qpv": "0"
  },
  {
    "title": "Jardin partag\u00e9 la Pompignane",
    "img": false,
    "slug": "jardin-partage-la-pompignane",
    "lat": "43.6209277",
    "lng": "3.9029362",
    "list_typeprojet": ["jardin-potager"],
    "list_typeactivite": [],
    "list_techniqueprod": [],
    "list_typeprod": [],
    "cp": "",
    "ville": "",
    "ouvertpublic": "",
    "prixsolidaires": "",
    "hlm": "0",
    "qpv": "0"
  },
  {
    "title": "Jardin partag\u00e9 la roseraie Saint-Odile",
    "img": false,
    "slug": "jardin-partage-la-roseraie-saint-odile",
    "lat": "43.6226110",
    "lng": "3.8742305",
    "list_typeprojet": ["jardin-potager"],
    "list_typeactivite": [],
    "list_techniqueprod": [],
    "list_typeprod": [],
    "cp": "",
    "ville": "",
    "ouvertpublic": "",
    "prixsolidaires": "",
    "hlm": "0",
    "qpv": "0"
  },
  {
    "title": "Jardin partag\u00e9 Saint-Martin",
    "img": false,
    "slug": "jardin-partage-saint-martin",
    "lat": "43.5933395",
    "lng": "3.8827918",
    "list_typeprojet": ["jardin-potager"],
    "list_typeactivite": [],
    "list_techniqueprod": [],
    "list_typeprod": [],
    "cp": "",
    "ville": "",
    "ouvertpublic": "",
    "prixsolidaires": "",
    "hlm": "0",
    "qpv": "0"
  },
  {
    "title": "Jardins familiaux - Lattes",
    "img": false,
    "slug": "jardins-familiaux-2",
    "lat": "43.569695561001",
    "lng": "3.9184252166748",
    "list_typeprojet": ["jardin-potager"],
    "list_typeactivite": [],
    "list_techniqueprod": [],
    "list_typeprod": [],
    "cp": "34970",
    "ville": "Lattes",
    "ouvertpublic": "0",
    "prixsolidaires": "0",
    "hlm": "0",
    "qpv": "0"
  },
  {
    "title": "Jardins Familiaux de l'Aissadon",
    "img": false,
    "slug": "jardins-familiaux-de-laissadon",
    "lat": "43.694004",
    "lng": "3.858502",
    "list_typeprojet": ["jardin-potager"],
    "list_typeactivite": [],
    "list_techniqueprod": [],
    "list_typeprod": [],
    "cp": "34730",
    "ville": "Prades-le-Lez",
    "ouvertpublic": "",
    "prixsolidaires": "",
    "hlm": "0",
    "qpv": "0"
  },
  {
    "title": "Jardins Familiaux - Vendargues",
    "img": false,
    "slug": "jardins-familiaux-3",
    "lat": "43.659491",
    "lng": "3.983854",
    "list_typeprojet": ["jardin-potager"],
    "list_typeactivite": [],
    "list_techniqueprod": [],
    "list_typeprod": [],
    "cp": "34740",
    "ville": "Vendargues",
    "ouvertpublic": "0",
    "prixsolidaires": "0",
    "hlm": "0",
    "qpv": "0"
  },
  {
    "title": "Jardins Familiaux - Pignan",
    "img": false,
    "slug": "jardins-familiaux-4",
    "lat": "43.572658",
    "lng": "3.752",
    "list_typeprojet": ["jardin-potager"],
    "list_typeactivite": [],
    "list_techniqueprod": [],
    "list_typeprod": [],
    "cp": "34570",
    "ville": "Pignan",
    "ouvertpublic": "0",
    "prixsolidaires": "0",
    "hlm": "0",
    "qpv": "0"
  },
  {
    "title": "Jardins Familiaux Anne et Bernard Thibaut",
    "img": false,
    "slug": "jardins-familiaux-anne-et-bernard-thibaut",
    "lat": "43.666454",
    "lng": "3.912741",
    "list_typeprojet": ["jardin-potager"],
    "list_typeactivite": [],
    "list_techniqueprod": [],
    "list_typeprod": [],
    "cp": "34830",
    "ville": "Jacou",
    "ouvertpublic": "",
    "prixsolidaires": "",
    "hlm": "0",
    "qpv": "0"
  },
  {
    "title": "Jardins familiaux de Clapiers",
    "img": false,
    "slug": "jardins-familiaux-de-clapiers",
    "lat": "43.665510",
    "lng": "3.883887",
    "list_typeprojet": ["jardin-potager"],
    "list_typeactivite": [],
    "list_techniqueprod": [],
    "list_typeprod": [],
    "cp": "34830",
    "ville": "Clapier",
    "ouvertpublic": "",
    "prixsolidaires": "",
    "hlm": "0",
    "qpv": "0"
  },
  {
    "title": "Jardins familiaux de la Capouli\u00e8re",
    "img": false,
    "slug": "jardins-familiaux-de-la-capouliere",
    "lat": "43.572203",
    "lng": "3.839364",
    "list_typeprojet": ["jardin-potager"],
    "list_typeactivite": [],
    "list_techniqueprod": [],
    "list_typeprod": [],
    "cp": "34430",
    "ville": "Saint-Jean-de-V\u00e9das",
    "ouvertpublic": "",
    "prixsolidaires": "",
    "hlm": "0",
    "qpv": "0"
  },
  {
    "title": "Jardins familiaux de Lav\u00e9rune",
    "img": false,
    "slug": "jardins-familiaux-de-laverune",
    "lat": "43.592140",
    "lng": "3.813390",
    "list_typeprojet": ["jardin-potager"],
    "list_typeactivite": [],
    "list_techniqueprod": [],
    "list_typeprod": [],
    "cp": "34880",
    "ville": "Lav\u00e9rune",
    "ouvertpublic": "",
    "prixsolidaires": "",
    "hlm": "0",
    "qpv": "0"
  },
  {
    "title": "Jardins familiaux de Vendargues",
    "img": false,
    "slug": "jardins-familiaux-de-vendargues",
    "lat": "43.666980",
    "lng": "3.964993",
    "list_typeprojet": ["jardin-potager"],
    "list_typeactivite": [],
    "list_techniqueprod": [],
    "list_typeprod": [],
    "cp": "34740",
    "ville": "Vendargues",
    "ouvertpublic": "",
    "prixsolidaires": "",
    "hlm": "0",
    "qpv": "0"
  },
  {
    "title": "Jardins Familiaux du Mas Nouguier",
    "img": false,
    "slug": "jardins-familiaux-du-mas-nouguier",
    "lat": "43.580162",
    "lng": "3.855442",
    "list_typeprojet": ["jardin-potager"],
    "list_typeactivite": [],
    "list_techniqueprod": [],
    "list_typeprod": [],
    "cp": "34000",
    "ville": "Montpellier",
    "ouvertpublic": "",
    "prixsolidaires": "",
    "hlm": "0",
    "qpv": "0"
  },
  {
    "title": "Jardins familiaux Jeannot",
    "img": false,
    "slug": "jardins-familiaux-jeannot",
    "lat": "43.664943",
    "lng": "4.039975",
    "list_typeprojet": ["jardin-potager"],
    "list_typeactivite": [],
    "list_techniqueprod": [],
    "list_typeprod": [],
    "cp": "34670",
    "ville": "Saint-Br\u00e8s",
    "ouvertpublic": "",
    "prixsolidaires": "",
    "hlm": "0",
    "qpv": "0"
  },
  {
    "title": "Jardins familiaux Les Grands Gr\u00e8s",
    "img": false,
    "slug": "jardins-familiaux-les-grands-gres-2",
    "lat": "43.609414",
    "lng": "3.936384",
    "list_typeprojet": ["jardin-potager"],
    "list_typeactivite": [],
    "list_techniqueprod": [],
    "list_typeprod": [],
    "cp": "34000",
    "ville": "Montpellier",
    "ouvertpublic": "",
    "prixsolidaires": "",
    "hlm": "0",
    "qpv": "0"
  },
  {
    "title": "Jardins familliaux de Malbosc",
    "img": false,
    "slug": "jardins-familliaux-de-malbosc",
    "lat": "43.628858",
    "lng": "3.827911",
    "list_typeprojet": ["jardin-potager"],
    "list_typeactivite": [],
    "list_techniqueprod": [],
    "list_typeprod": [],
    "cp": "34080",
    "ville": "Montpellier",
    "ouvertpublic": "",
    "prixsolidaires": "",
    "hlm": "0",
    "qpv": "0"
  },
  {
    "title": "Jardins familliaux du Cr\u00e8s",
    "img": false,
    "slug": "jardins-familliaux-du-cres",
    "lat": "43.663410",
    "lng": "3.929517",
    "list_typeprojet": ["jardin-potager"],
    "list_typeactivite": [],
    "list_techniqueprod": [],
    "list_typeprod": [],
    "cp": "34920",
    "ville": "Le Cr\u00e8s",
    "ouvertpublic": "",
    "prixsolidaires": "",
    "hlm": "0",
    "qpv": "0"
  },
  {
    "title": "Jardins familliaux du Rieucoulon",
    "img": false,
    "slug": "jardins-familliaux-du-rieucoulon",
    "lat": "43.594519",
    "lng": "3.837501",
    "list_typeprojet": ["jardin-potager"],
    "list_typeactivite": [],
    "list_techniqueprod": [],
    "list_typeprod": [],
    "cp": "34070",
    "ville": "Montpellier",
    "ouvertpublic": "",
    "prixsolidaires": "",
    "hlm": "0",
    "qpv": "0"
  },
  {
    "title": "Jardins Saint-Vincent",
    "img": false,
    "slug": "jardins-saint-vincent",
    "lat": "43.554789",
    "lng": "3.955240",
    "list_typeprojet": ["jardin-potager"],
    "list_typeactivite": [],
    "list_techniqueprod": [],
    "list_typeprod": [],
    "cp": "34470",
    "ville": "P\u00e9rols",
    "ouvertpublic": "",
    "prixsolidaires": "",
    "hlm": "0",
    "qpv": "0"
  },
  {
    "title": "Les Jardins de Grabels",
    "img": false,
    "slug": "les-jardins-de-grabels-2",
    "lat": "43.653137",
    "lng": "3.788925",
    "list_typeprojet": ["jardin-potager"],
    "list_typeactivite": [],
    "list_techniqueprod": [],
    "list_typeprod": [],
    "cp": "",
    "ville": "",
    "ouvertpublic": "",
    "prixsolidaires": "",
    "hlm": "0",
    "qpv": "0"
  },
  {
    "title": "Les Jardins du Coulazou",
    "img": false,
    "slug": "les-jardins-du-coulazou",
    "lat": "43.552971",
    "lng": "3.783002",
    "list_typeprojet": ["jardin-potager"],
    "list_typeactivite": [],
    "list_techniqueprod": [],
    "list_typeprod": [],
    "cp": "",
    "ville": "",
    "ouvertpublic": "",
    "prixsolidaires": "",
    "hlm": "0",
    "qpv": "0"
  },
  {
    "title": "Les Jardins familiaux du Lez",
    "img": false,
    "slug": "les-jardins-familiaux-du-lez",
    "lat": "43.669656",
    "lng": "3.864552",
    "list_typeprojet": ["jardin-potager"],
    "list_typeactivite": [],
    "list_techniqueprod": [],
    "list_typeprod": [],
    "cp": "",
    "ville": "",
    "ouvertpublic": "",
    "prixsolidaires": "",
    "hlm": "0",
    "qpv": "0"
  },
  {
    "title": "Jardins familiaux de Poitiers Saint Eloi",
    "img": false,
    "slug": "jardins-familiaux-de-poitiers-saint-eloi",
    "lat": "46.587157",
    "lng": "0.397685",
    "list_typeprojet": ["jardin-potager"],
    "list_typeactivite": [],
    "list_techniqueprod": [],
    "list_typeprod": [],
    "cp": "86000",
    "ville": "Poitiers",
    "ouvertpublic": "",
    "prixsolidaires": "",
    "hlm": "0",
    "qpv": "0"
  },
  {
    "title": "Jardins partag\u00e9s de Beaulieu",
    "img": false,
    "slug": "jardins-partages-de-beaulieu",
    "lat": "46.575012",
    "lng": "0.376657",
    "list_typeprojet": ["jardin-potager"],
    "list_typeactivite": [],
    "list_techniqueprod": [],
    "list_typeprod": [],
    "cp": "86000",
    "ville": "Poitiers",
    "ouvertpublic": "",
    "prixsolidaires": "",
    "hlm": "0",
    "qpv": "0"
  },
  {
    "title": "Le jardin des jeunes pousses",
    "img": false,
    "slug": "le-jardin-des-jeunes-pousses",
    "lat": "43.69743",
    "lng": "3.85983",
    "list_typeprojet": ["jardin-potager"],
    "list_typeactivite": [],
    "list_techniqueprod": [],
    "list_typeprod": [],
    "cp": "34730",
    "ville": "Prades le lez",
    "ouvertpublic": "",
    "prixsolidaires": "",
    "hlm": "0",
    "qpv": "0"
  },
  {
    "title": "Les jeunes pousses",
    "img": false,
    "slug": "les-jeunes-pousses",
    "lat": "43.7899",
    "lng": "4.6445",
    "list_typeprojet": [],
    "list_typeactivite": [],
    "list_techniqueprod": [],
    "list_typeprod": [],
    "cp": "30300",
    "ville": "Beaucaire",
    "ouvertpublic": "",
    "prixsolidaires": "",
    "hlm": "0",
    "qpv": "0"
  },
  {
    "title": "Les Lopins d'Abord",
    "img": false,
    "slug": "les-lopins-dabord",
    "lat": "43.564779",
    "lng": "3.448447",
    "list_typeprojet": ["jardin-potager"],
    "list_typeactivite": [],
    "list_techniqueprod": [],
    "list_typeprod": [],
    "cp": "34800",
    "ville": "Aspiran",
    "ouvertpublic": "",
    "prixsolidaires": "",
    "hlm": "0",
    "qpv": "0"
  },
  {
    "title": "Les petits jardins de Saucli\u00e8res",
    "img": false,
    "slug": "les-petits-jardins-de-sauclieres",
    "lat": "43.341669",
    "lng": "3.238251",
    "list_typeprojet": ["jardin-potager"],
    "list_typeactivite": [],
    "list_techniqueprod": [],
    "list_typeprod": [],
    "cp": "34500",
    "ville": "B\u00e9ziers",
    "ouvertpublic": "",
    "prixsolidaires": "",
    "hlm": "0",
    "qpv": "0"
  },
  {
    "title": "Les Petits Jardins de S\u00e9rignan",
    "img": false,
    "slug": "les-petits-jardins-de-serignan",
    "lat": "43.280237",
    "lng": "3.280593",
    "list_typeprojet": ["jardin-potager"],
    "list_typeactivite": [],
    "list_techniqueprod": [],
    "list_typeprod": [],
    "cp": "34410",
    "ville": "S\u00e9rignan",
    "ouvertpublic": "",
    "prixsolidaires": "",
    "hlm": "0",
    "qpv": "0"
  },
  {
    "title": "MELINA MERCOURI",
    "img": false,
    "slug": "melina-mercouri-2",
    "lat": "43.613623",
    "lng": "3.908504",
    "list_typeprojet": ["jardin-potager"],
    "list_typeactivite": [],
    "list_techniqueprod": [],
    "list_typeprod": [],
    "cp": "34000",
    "ville": "Montpellier",
    "ouvertpublic": "",
    "prixsolidaires": "",
    "hlm": "0",
    "qpv": "0"
  },
  {
    "title": "Oasis Citadine",
    "img": false,
    "slug": "oasis-citadine",
    "lat": "43.609349",
    "lng": "3.920184",
    "list_typeprojet": [],
    "list_typeactivite": [],
    "list_techniqueprod": [],
    "list_typeprod": [],
    "cp": "34000",
    "ville": "Montpellier",
    "ouvertpublic": "",
    "prixsolidaires": "",
    "hlm": "0",
    "qpv": "0"
  },
  {
    "title": "Parcelle de la voie do",
    "img": false,
    "slug": "parcelle-de-la-voie-do",
    "lat": "43.621856",
    "lng": "3.858690",
    "list_typeprojet": ["jardin-potager"],
    "list_typeactivite": [],
    "list_techniqueprod": [],
    "list_typeprod": [],
    "cp": "34000",
    "ville": "Montpellier",
    "ouvertpublic": "",
    "prixsolidaires": "",
    "hlm": "0",
    "qpv": "0"
  },
  {
    "title": "Pic et B\u00eache",
    "img": false,
    "slug": "pic-et-beche",
    "lat": "43.784430",
    "lng": "3.737041",
    "list_typeprojet": [],
    "list_typeactivite": [],
    "list_techniqueprod": [],
    "list_typeprod": [],
    "cp": "34380",
    "ville": "Saint-Martin-de-Londres",
    "ouvertpublic": "",
    "prixsolidaires": "",
    "hlm": "0",
    "qpv": "0"
  },
  {
    "title": "Pota LIRMM",
    "img": false,
    "slug": "pota-lirmm",
    "lat": "43.637539",
    "lng": "3.840998",
    "list_typeprojet": ["jardin-potager"],
    "list_typeactivite": [],
    "list_techniqueprod": [],
    "list_typeprod": [],
    "cp": "34000",
    "ville": "Montpellier",
    "ouvertpublic": "",
    "prixsolidaires": "",
    "hlm": "0",
    "qpv": "0"
  },
  {
    "title": "SQUARE DES BRUSSES",
    "img": false,
    "slug": "square-des-brusses-2",
    "lat": "43.633031",
    "lng": "3.859555",
    "list_typeprojet": ["jardin-potager"],
    "list_typeactivite": [],
    "list_techniqueprod": [],
    "list_typeprod": [],
    "cp": "34000",
    "ville": "Montpellier",
    "ouvertpublic": "",
    "prixsolidaires": "",
    "hlm": "0",
    "qpv": "0"
  },
  {
    "title": "TERRASSES DES ARCEAUX, La ROUQUETTE",
    "img": false,
    "slug": "terrasses-des-arceaux-la-rouquette",
    "lat": "43.611725",
    "lng": "3.86721",
    "list_typeprojet": [],
    "list_typeactivite": [],
    "list_techniqueprod": [],
    "list_typeprod": [],
    "cp": "34000",
    "ville": "Montpellier",
    "ouvertpublic": "",
    "prixsolidaires": "",
    "hlm": "0",
    "qpv": "0"
  },
  {
    "title": "Terre en Partage - Jardin des Berges",
    "img": false,
    "slug": "terre-en-partage-jardin-des-berges",
    "lat": "43.734414",
    "lng": "3.32419",
    "list_typeprojet": ["jardin-potager"],
    "list_typeactivite": [],
    "list_techniqueprod": [],
    "list_typeprod": [],
    "cp": "34700",
    "ville": "Lod\u00e8ve",
    "ouvertpublic": "",
    "prixsolidaires": "",
    "hlm": "0",
    "qpv": "0"
  },
  {
    "title": "Verger de la Fabrique",
    "img": false,
    "slug": "verger-de-la-fabrique",
    "lat": "43.603702",
    "lng": "3.982372",
    "list_typeprojet": ["jardin-potager"],
    "list_typeactivite": [],
    "list_techniqueprod": [],
    "list_typeprod": [],
    "cp": "34130",
    "ville": "Mauguio",
    "ouvertpublic": "",
    "prixsolidaires": "",
    "hlm": "0",
    "qpv": "0"
  },
  {
    "title": "Verger partag\u00e9 de Castries",
    "img": false,
    "slug": "verger-partage-de-castries",
    "lat": "43.674329",
    "lng": "3.987889",
    "list_typeprojet": ["jardin-potager"],
    "list_typeactivite": [],
    "list_techniqueprod": [],
    "list_typeprod": [],
    "cp": "34160",
    "ville": "Castries",
    "ouvertpublic": "",
    "prixsolidaires": "",
    "hlm": "0",
    "qpv": "0"
  },
  {
    "title": "VERPOPA - VERGER POTAGER PARTAGE",
    "img": false,
    "slug": "verpopa-verger-potager-partage",
    "lat": "43.619377",
    "lng": "3.836904",
    "list_typeprojet": ["jardin-potager"],
    "list_typeactivite": [],
    "list_techniqueprod": [],
    "list_typeprod": [],
    "cp": "34000",
    "ville": "Montpellier",
    "ouvertpublic": "",
    "prixsolidaires": "",
    "hlm": "0",
    "qpv": "0"
  },
  {
    "title": "Tombettes",
    "img": false,
    "slug": "tombettes",
    "lat": "43.540121",
    "lng": "3.862144",
    "list_typeprojet": ["jardin-potager"],
    "list_typeactivite": [],
    "list_techniqueprod": [],
    "list_typeprod": [],
    "cp": "34750",
    "ville": "Villeneuve-l\u00e8s-Maguelone",
    "ouvertpublic": "",
    "prixsolidaires": "",
    "hlm": "0",
    "qpv": "0"
  },
  {
    "title": "Marels",
    "img": false,
    "slug": "marels",
    "lat": "43.619542",
    "lng": "3.934435",
    "list_typeprojet": ["jardin-potager"],
    "list_typeactivite": [],
    "list_techniqueprod": [],
    "list_typeprod": [],
    "cp": "34000",
    "ville": "Montpellier",
    "ouvertpublic": "",
    "prixsolidaires": "",
    "hlm": "0",
    "qpv": "0"
  },
  {
    "title": "Campermat",
    "img": false,
    "slug": "campermat",
    "lat": "43.693837",
    "lng": "3.856969",
    "list_typeprojet": ["jardin-potager"],
    "list_typeactivite": [],
    "list_techniqueprod": [],
    "list_typeprod": [],
    "cp": "34730",
    "ville": "Prades-le-Lez",
    "ouvertpublic": "",
    "prixsolidaires": "",
    "hlm": "0",
    "qpv": "0"
  },
  {
    "title": "Aiguerelles",
    "img": false,
    "slug": "aiguerelles",
    "lat": "43.594643",
    "lng": "3.901581",
    "list_typeprojet": ["jardin-potager"],
    "list_typeactivite": [],
    "list_techniqueprod": [],
    "list_typeprod": [],
    "cp": "34000",
    "ville": "Montpellier",
    "ouvertpublic": "",
    "prixsolidaires": "",
    "hlm": "0",
    "qpv": "0"
  },
  {
    "title": "Aiguelongue",
    "img": false,
    "slug": "aiguelongue",
    "lat": "43.6470744",
    "lng": "3.8744003",
    "list_typeprojet": ["jardin-potager"],
    "list_typeactivite": [],
    "list_techniqueprod": [],
    "list_typeprod": [],
    "cp": "34000",
    "ville": "Montpellier",
    "ouvertpublic": "",
    "prixsolidaires": "",
    "hlm": "0",
    "qpv": "0"
  },
  {
    "title": "Jardin du c\u0153ur - Villeneuve-l\u00e8s-Maguelone",
    "img": false,
    "slug": "jardin-du-coeur-2",
    "lat": "43.544736",
    "lng": "3.853408",
    "list_typeprojet": ["jardin-potager"],
    "list_typeactivite": [],
    "list_techniqueprod": [],
    "list_typeprod": [],
    "cp": "34750",
    "ville": "Villeneuve-l\u00e8s-Maguelone",
    "ouvertpublic": "0",
    "prixsolidaires": "0",
    "hlm": "0",
    "qpv": "0"
  },
  {
    "title": "Jardin Les Jeunes Pousses",
    "img": false,
    "slug": "jardin-les-jeunes-pousses",
    "lat": "43.6972464",
    "lng": "3.8599029",
    "list_typeprojet": ["jardin-potager"],
    "list_typeactivite": [],
    "list_techniqueprod": [],
    "list_typeprod": [],
    "cp": "34730",
    "ville": "Prades-le-Lez",
    "ouvertpublic": "",
    "prixsolidaires": "",
    "hlm": "0",
    "qpv": "0"
  },
  {
    "title": "Jardins R\u00e9colte pour tous",
    "img": false,
    "slug": "jardins-recolte-pour-tous",
    "lat": "43.693335",
    "lng": "3.856273",
    "list_typeprojet": ["jardin-potager"],
    "list_typeactivite": [],
    "list_techniqueprod": [],
    "list_typeprod": [],
    "cp": "34730",
    "ville": "Prades-le-Lez",
    "ouvertpublic": "",
    "prixsolidaires": "",
    "hlm": "0",
    "qpv": "0"
  },
  {
    "title": "Jardins familiaux de Saint-Georges",
    "img": false,
    "slug": "jardins-familiaux-de-saint-georges",
    "lat": "43.603573",
    "lng": "3.782156",
    "list_typeprojet": ["jardin-potager"],
    "list_typeactivite": [],
    "list_techniqueprod": [],
    "list_typeprod": [],
    "cp": "34680",
    "ville": "Saint-Georges-d'Orques",
    "ouvertpublic": "",
    "prixsolidaires": "",
    "hlm": "0",
    "qpv": "0"
  },
  {
    "title": "Fondespierre",
    "img": false,
    "slug": "fondespierre",
    "lat": "43.695527",
    "lng": "3.992459",
    "list_typeprojet": ["jardin-potager"],
    "list_typeactivite": [],
    "list_techniqueprod": [],
    "list_typeprod": [],
    "cp": "34160",
    "ville": "Castries",
    "ouvertpublic": "",
    "prixsolidaires": "",
    "hlm": "0",
    "qpv": "0"
  },
  {
    "title": "Les Jardins de Marcel - Sussargues",
    "img": false,
    "slug": "les-jardins-de-marcel-2",
    "lat": "43.718669",
    "lng": "4.003533",
    "list_typeprojet": ["jardin-potager"],
    "list_typeactivite": [],
    "list_techniqueprod": [],
    "list_typeprod": [],
    "cp": "34160",
    "ville": "Sussargues",
    "ouvertpublic": "0",
    "prixsolidaires": "0",
    "hlm": "0",
    "qpv": "0"
  },
  {
    "title": "Le carr\u00e9 vert",
    "img": false,
    "slug": "le-carre-vert",
    "lat": "43.268785",
    "lng": "2.875133",
    "list_typeprojet": ["jardin-potager"],
    "list_typeactivite": [],
    "list_techniqueprod": [],
    "list_typeprod": [],
    "cp": "11120",
    "ville": "Ginestas",
    "ouvertpublic": "",
    "prixsolidaires": "",
    "hlm": "0",
    "qpv": "0"
  },
  {
    "title": "Le Champ des possibles",
    "img": false,
    "slug": "le-champ-des-possibles",
    "lat": "43.02891",
    "lng": "2.97926",
    "list_typeprojet": ["jardin-potager"],
    "list_typeactivite": [],
    "list_techniqueprod": [],
    "list_typeprod": [],
    "cp": "11130",
    "ville": "Sigean",
    "ouvertpublic": "",
    "prixsolidaires": "",
    "hlm": "0",
    "qpv": "0"
  },
  {
    "title": "Le Gecko de l'UM",
    "img": false,
    "slug": "le-gecko-de-lum-2",
    "lat": "43.633746",
    "lng": "3.860551",
    "list_typeprojet": ["jardin-potager"],
    "list_typeactivite": [],
    "list_techniqueprod": [],
    "list_typeprod": [],
    "cp": "34000",
    "ville": "Montpellier",
    "ouvertpublic": "",
    "prixsolidaires": "",
    "hlm": "0",
    "qpv": "0"
  },
  {
    "title": "Le jardin \u00e0 travers les \u00e2ges",
    "img": false,
    "slug": "le-jardin-a-travers-les-ages",
    "lat": "43.59409",
    "lng": "3.776398",
    "list_typeprojet": ["jardin-potager"],
    "list_typeactivite": [],
    "list_techniqueprod": [],
    "list_typeprod": [],
    "cp": "34570",
    "ville": "Pignan",
    "ouvertpublic": "",
    "prixsolidaires": "",
    "hlm": "0",
    "qpv": "0"
  },
  {
    "title": "Les jardins de Caveirac",
    "img": false,
    "slug": "les-jardins-de-caveirac",
    "lat": "43.824406",
    "lng": "4.260208",
    "list_typeprojet": ["jardin-potager"],
    "list_typeactivite": [],
    "list_techniqueprod": [],
    "list_typeprod": [],
    "cp": "30820",
    "ville": "Caveirac",
    "ouvertpublic": "",
    "prixsolidaires": "",
    "hlm": "0",
    "qpv": "0"
  },
  {
    "title": "les jardins de JUVINIUS",
    "img": false,
    "slug": "les-jardins-de-juvinius",
    "lat": "43.620274",
    "lng": "3.795894",
    "list_typeprojet": ["jardin-potager"],
    "list_typeactivite": [],
    "list_techniqueprod": [],
    "list_typeprod": [],
    "cp": "34990",
    "ville": "Juvignac",
    "ouvertpublic": "",
    "prixsolidaires": "",
    "hlm": "0",
    "qpv": "0"
  },
  {
    "title": "Les jardins de la Reille",
    "img": false,
    "slug": "les-jardins-de-la-reille",
    "lat": "43.224596",
    "lng": "2.351186",
    "list_typeprojet": ["jardin-potager"],
    "list_typeactivite": [],
    "list_techniqueprod": [],
    "list_typeprod": [],
    "cp": "11000",
    "ville": "Carcassonne",
    "ouvertpublic": "",
    "prixsolidaires": "",
    "hlm": "0",
    "qpv": "0"
  },
  {
    "title": "Les jardins de la Reille - Centre social de Grazailles",
    "img": false,
    "slug": "les-jardins-de-la-reille-centre-social-de-grazailles",
    "lat": "43.224596",
    "lng": "2.351186",
    "list_typeprojet": ["jardin-potager"],
    "list_typeactivite": [],
    "list_techniqueprod": [],
    "list_typeprod": [],
    "cp": "11000",
    "ville": "Carcassonne",
    "ouvertpublic": "",
    "prixsolidaires": "",
    "hlm": "0",
    "qpv": "0"
  },
  {
    "title": "Les jardins du mas des Fouques",
    "img": false,
    "slug": "les-jardins-du-mas-des-fouques",
    "lat": "43.68955",
    "lng": "3.807122",
    "list_typeprojet": ["jardin-potager"],
    "list_typeactivite": [],
    "list_techniqueprod": [],
    "list_typeprod": [],
    "cp": "34980",
    "ville": "St G\u00e9ly du fesc",
    "ouvertpublic": "",
    "prixsolidaires": "",
    "hlm": "0",
    "qpv": "0"
  },
  {
    "title": "Jardin solidaire de Montagnac - association Capdiffe",
    "img": false,
    "slug": "jardin-solidaire-de-montagnac-association-capdiffe",
    "lat": "43.93729",
    "lng": "4.14797",
    "list_typeprojet": ["jardin-potager"],
    "list_typeactivite": [],
    "list_techniqueprod": [],
    "list_typeprod": [],
    "cp": "30350",
    "ville": "Montagnac",
    "ouvertpublic": "",
    "prixsolidaires": "",
    "hlm": "0",
    "qpv": "0"
  },
  {
    "title": "Jardin solidaire de Paulhan - association Capdife",
    "img": false,
    "slug": "jardin-solidaire-de-paulhan-association-capdife",
    "lat": "43.53965",
    "lng": "3.45937",
    "list_typeprojet": ["jardin-potager"],
    "list_typeactivite": [],
    "list_techniqueprod": [],
    "list_typeprod": [],
    "cp": "34230",
    "ville": "Paulhan",
    "ouvertpublic": "",
    "prixsolidaires": "",
    "hlm": "0",
    "qpv": "0"
  },
  {
    "title": "Jardin solidaire de Valergues - association Capdife",
    "img": false,
    "slug": "jardin-solidaire-de-valergues-association-capdife",
    "lat": "43.66728",
    "lng": "4.06185",
    "list_typeprojet": ["jardin-potager"],
    "list_typeactivite": [],
    "list_techniqueprod": [],
    "list_typeprod": [],
    "cp": "34130",
    "ville": "Valergues",
    "ouvertpublic": "",
    "prixsolidaires": "",
    "hlm": "0",
    "qpv": "0"
  },
  {
    "title": "Jardin St MARTIN",
    "img": false,
    "slug": "jardin-st-martin",
    "lat": "43.592651",
    "lng": "3.884187",
    "list_typeprojet": ["jardin-potager"],
    "list_typeactivite": [],
    "list_techniqueprod": [],
    "list_typeprod": [],
    "cp": "34000",
    "ville": "Montpellier",
    "ouvertpublic": "",
    "prixsolidaires": "",
    "hlm": "0",
    "qpv": "0"
  },
  {
    "title": "Jardin Ste ODILE",
    "img": false,
    "slug": "jardin-ste-odile",
    "lat": "43.622007",
    "lng": "3.874354",
    "list_typeprojet": ["jardin-potager"],
    "list_typeactivite": [],
    "list_techniqueprod": [],
    "list_typeprod": [],
    "cp": "34090",
    "ville": "Montpellier",
    "ouvertpublic": "",
    "prixsolidaires": "",
    "hlm": "0",
    "qpv": "0"
  },
  {
    "title": "Jardin VOLTAIRE",
    "img": false,
    "slug": "jardin-voltaire",
    "lat": "43.604012",
    "lng": "3.888974",
    "list_typeprojet": ["jardin-potager"],
    "list_typeactivite": [],
    "list_techniqueprod": [],
    "list_typeprod": [],
    "cp": "34070",
    "ville": "Montpellier",
    "ouvertpublic": "",
    "prixsolidaires": "",
    "hlm": "0",
    "qpv": "0"
  },
  {
    "title": "Jardinot Al\u00e8s",
    "img": false,
    "slug": "jardinot-ales",
    "lat": "44.110297",
    "lng": "4.092648",
    "list_typeprojet": ["jardin-potager"],
    "list_typeactivite": [],
    "list_techniqueprod": [],
    "list_typeprod": [],
    "cp": "30100",
    "ville": "Al\u00e8s",
    "ouvertpublic": "",
    "prixsolidaires": "",
    "hlm": "0",
    "qpv": "0"
  },
  {
    "title": "Jardins familiaux de Las Tinos",
    "img": false,
    "slug": "jardins-familiaux-de-las-tinos",
    "lat": "43.179361",
    "lng": "2.987536",
    "list_typeprojet": ["jardin-potager"],
    "list_typeactivite": [],
    "list_techniqueprod": [],
    "list_typeprod": [],
    "cp": "11100",
    "ville": "Narbonne",
    "ouvertpublic": "",
    "prixsolidaires": "",
    "hlm": "0",
    "qpv": "0"
  },
  {
    "title": "Jardins familiaux de l'H\u00e9rault",
    "img": false,
    "slug": "jardins-familiaux-de-lherault",
    "lat": "43.59481",
    "lng": "3.90142",
    "list_typeprojet": ["jardin-potager"],
    "list_typeactivite": [],
    "list_techniqueprod": [],
    "list_typeprod": [],
    "cp": "34000",
    "ville": "Montpellier",
    "ouvertpublic": "",
    "prixsolidaires": "",
    "hlm": "0",
    "qpv": "0"
  },
  {
    "title": "Jardins familiaux de St Quentin la Poterie",
    "img": false,
    "slug": "jardins-familiaux-de-st-quentin-la-poterie",
    "lat": "44.038881",
    "lng": "4.434303",
    "list_typeprojet": ["jardin-potager"],
    "list_typeactivite": [],
    "list_techniqueprod": [],
    "list_typeprod": [],
    "cp": "30700",
    "ville": "St Quentin la poterie",
    "ouvertpublic": "",
    "prixsolidaires": "",
    "hlm": "0",
    "qpv": "0"
  },
  {
    "title": "Jardins familiaux du Cr\u00e8s - De Butte en Plants",
    "img": false,
    "slug": "jardins-familiaux-du-cres-de-butte-en-plants",
    "lat": "43.663628",
    "lng": "3.930831",
    "list_typeprojet": ["jardin-potager"],
    "list_typeactivite": [],
    "list_techniqueprod": [],
    "list_typeprod": [],
    "cp": "34920",
    "ville": "Le Cr\u00e8s",
    "ouvertpublic": "",
    "prixsolidaires": "",
    "hlm": "0",
    "qpv": "0"
  },
  {
    "title": "Jardins Familiaux du Rieucoulon",
    "img": false,
    "slug": "jardins-familiaux-du-rieucoulon-2",
    "lat": "43.59469",
    "lng": "3.83734",
    "list_typeprojet": ["jardin-potager"],
    "list_typeactivite": [],
    "list_techniqueprod": [],
    "list_typeprod": [],
    "cp": "34000",
    "ville": "Montpellier",
    "ouvertpublic": "",
    "prixsolidaires": "",
    "hlm": "0",
    "qpv": "0"
  },
  {
    "title": "Jardins municipaux de Codogan",
    "img": false,
    "slug": "jardins-municipaux-de-codogan",
    "lat": "43.696464",
    "lng": "3.31424",
    "list_typeprojet": ["jardin-potager"],
    "list_typeactivite": [],
    "list_techniqueprod": [],
    "list_typeprod": [],
    "cp": "30920",
    "ville": "Codognan",
    "ouvertpublic": "",
    "prixsolidaires": "",
    "hlm": "0",
    "qpv": "0"
  },
  {
    "title": "Jardins partag\u00e9 d'Uzes",
    "img": false,
    "slug": "jardins-partage-duzes",
    "lat": "44.004023",
    "lng": "4.409046",
    "list_typeprojet": ["jardin-potager"],
    "list_typeactivite": [],
    "list_techniqueprod": [],
    "list_typeprod": [],
    "cp": "30700",
    "ville": "Uz\u00e8s",
    "ouvertpublic": "",
    "prixsolidaires": "",
    "hlm": "0",
    "qpv": "0"
  },
  {
    "title": "Jasminus",
    "img": false,
    "slug": "jasminus",
    "lat": "43.720272",
    "lng": "4.109573",
    "list_typeprojet": [],
    "list_typeactivite": [],
    "list_techniqueprod": [],
    "list_typeprod": [],
    "cp": "34400",
    "ville": "Saturargues",
    "ouvertpublic": "",
    "prixsolidaires": "",
    "hlm": "0",
    "qpv": "0"
  },
  {
    "title": "La CARRIERA",
    "img": false,
    "slug": "la-carriera-2",
    "lat": "43.635799",
    "lng": "3.816879",
    "list_typeprojet": ["jardin-potager"],
    "list_typeactivite": [],
    "list_techniqueprod": [],
    "list_typeprod": [],
    "cp": "34000",
    "ville": "Montpellier",
    "ouvertpublic": "",
    "prixsolidaires": "",
    "hlm": "0",
    "qpv": "0"
  },
  {
    "title": "La For\u00eat Lattoise",
    "img": false,
    "slug": "la-foret-lattoise",
    "lat": "43.55141",
    "lng": "3.85663",
    "list_typeprojet": ["jardin-potager"],
    "list_typeactivite": [],
    "list_techniqueprod": [],
    "list_typeprod": [],
    "cp": "34970",
    "ville": "Lattes",
    "ouvertpublic": "",
    "prixsolidaires": "",
    "hlm": "0",
    "qpv": "0"
  },
  {
    "title": "La Mauvaise Graine",
    "img": false,
    "slug": "la-mauvaise-graine",
    "lat": "43.63076",
    "lng": "3.87014",
    "list_typeprojet": ["jardin-potager"],
    "list_typeactivite": [],
    "list_techniqueprod": [],
    "list_typeprod": [],
    "cp": "34000",
    "ville": "Montpellier",
    "ouvertpublic": "",
    "prixsolidaires": "",
    "hlm": "0",
    "qpv": "0"
  },
  {
    "title": "Jardin du LAC DES GARRIGUES",
    "img": false,
    "slug": "jardin-du-lac-des-garrigues-2",
    "lat": "43.636942",
    "lng": "3.81411",
    "list_typeprojet": ["jardin-potager"],
    "list_typeactivite": [],
    "list_techniqueprod": [],
    "list_typeprod": [],
    "cp": "34000",
    "ville": "Montpellier",
    "ouvertpublic": "",
    "prixsolidaires": "",
    "hlm": "0",
    "qpv": "0"
  },
  {
    "title": "Jardin du Lirou",
    "img": false,
    "slug": "jardin-du-lirou",
    "lat": "43.338649",
    "lng": "3.218574",
    "list_typeprojet": ["jardin-potager"],
    "list_typeactivite": [],
    "list_techniqueprod": [],
    "list_typeprod": [],
    "cp": "34500",
    "ville": "B\u00e9ziers",
    "ouvertpublic": "",
    "prixsolidaires": "",
    "hlm": "0",
    "qpv": "0"
  },
  {
    "title": "Jardin du Square Bonnet / AJAP",
    "img": false,
    "slug": "jardin-du-square-bonnet-ajap",
    "lat": "43.606607",
    "lng": "3.866472",
    "list_typeprojet": ["jardin-potager"],
    "list_typeactivite": [],
    "list_techniqueprod": [],
    "list_typeprod": [],
    "cp": "34000",
    "ville": "Montpellier",
    "ouvertpublic": "",
    "prixsolidaires": "",
    "hlm": "0",
    "qpv": "0"
  },
  {
    "title": "Jardin du Viguier",
    "img": false,
    "slug": "jardin-du-viguier",
    "lat": "43.21356",
    "lng": "2.35335",
    "list_typeprojet": ["jardin-potager"],
    "list_typeactivite": [],
    "list_techniqueprod": [],
    "list_typeprod": [],
    "cp": "11000",
    "ville": "Carcassonne",
    "ouvertpublic": "",
    "prixsolidaires": "",
    "hlm": "0",
    "qpv": "0"
  },
  {
    "title": "Jardin Ehpad",
    "img": false,
    "slug": "jardin-ehpad",
    "lat": "44.261021",
    "lng": "4.158390",
    "list_typeprojet": ["jardin-potager"],
    "list_typeactivite": [],
    "list_techniqueprod": [],
    "list_typeprod": [],
    "cp": "30410",
    "ville": "Moli\u00e8res sur C\u00e8ze",
    "ouvertpublic": "",
    "prixsolidaires": "",
    "hlm": "0",
    "qpv": "0"
  },
  {
    "title": "Jardin Familiaux de la Capouli\u00e8re",
    "img": false,
    "slug": "jardin-familiaux-de-la-capouliere",
    "lat": "43.57224",
    "lng": "3.83922",
    "list_typeprojet": ["jardin-potager"],
    "list_typeactivite": [],
    "list_techniqueprod": [],
    "list_typeprod": [],
    "cp": "34430",
    "ville": "Saint-Jean-de-V\u00e9das",
    "ouvertpublic": "",
    "prixsolidaires": "",
    "hlm": "0",
    "qpv": "0"
  },
  {
    "title": "Jardins Familiaux de Malbosc",
    "img": false,
    "slug": "jardins-familiaux-de-malbosc-2",
    "lat": "43.62872",
    "lng": "3.82786",
    "list_typeprojet": ["jardin-potager"],
    "list_typeactivite": [],
    "list_techniqueprod": [],
    "list_typeprod": [],
    "cp": "34080",
    "ville": "Mosson",
    "ouvertpublic": "",
    "prixsolidaires": "",
    "hlm": "0",
    "qpv": "0"
  },
  {
    "title": "Jardins du Couzalou",
    "img": false,
    "slug": "jardins-du-couzalou",
    "lat": "43.55303",
    "lng": "3.78273",
    "list_typeprojet": ["jardin-potager"],
    "list_typeactivite": [],
    "list_techniqueprod": [],
    "list_typeprod": [],
    "cp": "34690",
    "ville": "Fabr\u00e8gue",
    "ouvertpublic": "",
    "prixsolidaires": "",
    "hlm": "0",
    "qpv": "0"
  },
  {
    "title": "Jardins Familiaux Les Grand Gr\u00e8s",
    "img": false,
    "slug": "jardins-familiaux-les-grand-gres",
    "lat": "43.60953",
    "lng": "3.93639",
    "list_typeprojet": ["jardin-potager"],
    "list_typeactivite": [],
    "list_techniqueprod": [],
    "list_typeprod": [],
    "cp": "34000",
    "ville": "Montpellier",
    "ouvertpublic": "",
    "prixsolidaires": "",
    "hlm": "0",
    "qpv": "0"
  },
  {
    "title": "Jardin GRAND MAIL",
    "img": false,
    "slug": "jardin-grand-mail-2",
    "lat": "43.624788",
    "lng": "3.816547",
    "list_typeprojet": ["jardin-potager"],
    "list_typeactivite": [],
    "list_techniqueprod": [],
    "list_typeprod": [],
    "cp": "34080",
    "ville": "Mosson",
    "ouvertpublic": "",
    "prixsolidaires": "",
    "hlm": "0",
    "qpv": "0"
  },
  {
    "title": "Jardin partag\u00e9 d'Agroparitech",
    "img": false,
    "slug": "jardin-partage-dagroparitech",
    "lat": "43.64715",
    "lng": "3.87920",
    "list_typeprojet": ["jardin-potager"],
    "list_typeactivite": [],
    "list_techniqueprod": [],
    "list_typeprod": [],
    "cp": "34000",
    "ville": "Montpellier",
    "ouvertpublic": "",
    "prixsolidaires": "",
    "hlm": "0",
    "qpv": "0"
  },
  {
    "title": "Jardin partag\u00e9 d'Aniane",
    "img": false,
    "slug": "jardin-partage-daniane",
    "lat": "43.684928",
    "lng": "3.588488",
    "list_typeprojet": ["jardin-potager"],
    "list_typeactivite": [],
    "list_techniqueprod": [],
    "list_typeprod": [],
    "cp": "34150",
    "ville": "Aniane",
    "ouvertpublic": "",
    "prixsolidaires": "",
    "hlm": "0",
    "qpv": "0"
  },
  {
    "title": "Jardin partag\u00e9 de Bagatelle",
    "img": false,
    "slug": "jardin-partage-de-bagatelle",
    "lat": "43.593978",
    "lng": "3.84084",
    "list_typeprojet": ["jardin-potager"],
    "list_typeactivite": [],
    "list_techniqueprod": [],
    "list_typeprod": [],
    "cp": "34000",
    "ville": "Montpellier",
    "ouvertpublic": "",
    "prixsolidaires": "",
    "hlm": "0",
    "qpv": "0"
  },
  {
    "title": "Jardin partag\u00e9 des Enfants de la Colline",
    "img": false,
    "slug": "jardin-partage-des-enfants-de-la-colline",
    "lat": "43.62343",
    "lng": "3.84941",
    "list_typeprojet": ["jardin-potager"],
    "list_typeactivite": [],
    "list_techniqueprod": [],
    "list_typeprod": [],
    "cp": "34000",
    "ville": "Montpellier",
    "ouvertpublic": "",
    "prixsolidaires": "",
    "hlm": "0",
    "qpv": "0"
  },
  {
    "title": "Jardin partag\u00e9 des Grisettes",
    "img": false,
    "slug": "jardin-partage-des-grisettes",
    "lat": "43.58206",
    "lng": "3.85431",
    "list_typeprojet": ["jardin-potager"],
    "list_typeactivite": [],
    "list_techniqueprod": [],
    "list_typeprod": [],
    "cp": "34000",
    "ville": "Montpellier",
    "ouvertpublic": "",
    "prixsolidaires": "",
    "hlm": "0",
    "qpv": "0"
  },
  {
    "title": "Jardin partag\u00e9 du Parc CLEMENCEAU",
    "img": false,
    "slug": "jardin-partage-du-parc-clemenceau",
    "lat": "43.601662",
    "lng": "3.870687",
    "list_typeprojet": ["jardin-potager"],
    "list_typeactivite": [],
    "list_techniqueprod": [],
    "list_typeprod": [],
    "cp": "34000",
    "ville": "Montpellier",
    "ouvertpublic": "",
    "prixsolidaires": "",
    "hlm": "0",
    "qpv": "0"
  },
  {
    "title": "Jardin partag\u00e9 du Parc Magnol",
    "img": false,
    "slug": "jardin-partage-du-parc-magnol",
    "lat": "43.61519",
    "lng": "3.854715",
    "list_typeprojet": ["jardin-potager"],
    "list_typeactivite": [],
    "list_techniqueprod": [],
    "list_typeprod": [],
    "cp": "34000",
    "ville": "",
    "ouvertpublic": "",
    "prixsolidaires": "",
    "hlm": "0",
    "qpv": "0"
  },
  {
    "title": "Jardin Partag\u00e9 du Site Arnaud de Villeneuve",
    "img": false,
    "slug": "jardin-partage-du-site-arnaud-de-villeneuve",
    "lat": "43.63342",
    "lng": "3.84760",
    "list_typeprojet": ["jardin-potager"],
    "list_typeactivite": [],
    "list_techniqueprod": [],
    "list_typeprod": [],
    "cp": "34000",
    "ville": "Montpellier",
    "ouvertpublic": "",
    "prixsolidaires": "",
    "hlm": "0",
    "qpv": "0"
  },
  {
    "title": "Jardin P\u00e9dagogique de l'\u00e9coloth\u00e8que",
    "img": false,
    "slug": "jardin-pedagogique-de-lecolotheque",
    "lat": "43.57341",
    "lng": "3.85350",
    "list_typeprojet": ["jardin-potager"],
    "list_typeactivite": [],
    "list_techniqueprod": [],
    "list_typeprod": [],
    "cp": "34430",
    "ville": "Saint-Jean-de-V\u00e9das",
    "ouvertpublic": "",
    "prixsolidaires": "",
    "hlm": "0",
    "qpv": "0"
  },
  {
    "title": "Jardin solidaire de Clermont l'H\u00e9rault - association Capdife",
    "img": false,
    "slug": "jardin-solidaire-de-clermont-lherault-association-capdife",
    "lat": "43.628416",
    "lng": "3.434534",
    "list_typeprojet": ["jardin-potager"],
    "list_typeactivite": [],
    "list_techniqueprod": [],
    "list_typeprod": [],
    "cp": "34800",
    "ville": "Clermont l?H\u00e9rault",
    "ouvertpublic": "",
    "prixsolidaires": "",
    "hlm": "0",
    "qpv": "0"
  },
  {
    "title": "Jardin des S\u0153urs de St Fran\u00e7ois d'Assise",
    "img": false,
    "slug": "jardin-des-soeurs-de-st-francois-dassise",
    "lat": "43.61861",
    "lng": "3.87473",
    "list_typeprojet": ["jardin-potager"],
    "list_typeactivite": [],
    "list_techniqueprod": [],
    "list_typeprod": [],
    "cp": "34000",
    "ville": "Montpellier",
    "ouvertpublic": "",
    "prixsolidaires": "",
    "hlm": "0",
    "qpv": "0"
  },
  {
    "title": "Jardin d'Estanove",
    "img": false,
    "slug": "jardin-destanove",
    "lat": "43.59882",
    "lng": "3.85422",
    "list_typeprojet": ["jardin-potager"],
    "list_typeactivite": [],
    "list_techniqueprod": [],
    "list_typeprod": [],
    "cp": "34000",
    "ville": "Montpellier",
    "ouvertpublic": "",
    "prixsolidaires": "",
    "hlm": "0",
    "qpv": "0"
  },
  {
    "title": "Jardin d'Ozanam",
    "img": false,
    "slug": "jardin-dozanam",
    "lat": "43.212189",
    "lng": "2.365309",
    "list_typeprojet": ["jardin-potager"],
    "list_typeactivite": [],
    "list_techniqueprod": [],
    "list_typeprod": [],
    "cp": "11000",
    "ville": "Carcassone",
    "ouvertpublic": "",
    "prixsolidaires": "",
    "hlm": "0",
    "qpv": "0"
  },
  {
    "title": "Jardin du Bas Vernet",
    "img": false,
    "slug": "jardin-du-bas-vernet",
    "lat": "42.704534",
    "lng": "2.881695",
    "list_typeprojet": ["jardin-potager"],
    "list_typeactivite": [],
    "list_techniqueprod": [],
    "list_typeprod": [],
    "cp": "66000",
    "ville": "Perpignan",
    "ouvertpublic": "",
    "prixsolidaires": "",
    "hlm": "0",
    "qpv": "0"
  },
  {
    "title": "Jardin du CCAS - Perpignan",
    "img": false,
    "slug": "jardin-du-ccas",
    "lat": "42.712792",
    "lng": "2.888224",
    "list_typeprojet": ["jardin-potager"],
    "list_typeactivite": [],
    "list_techniqueprod": [],
    "list_typeprod": [],
    "cp": "66000",
    "ville": "Perpignan",
    "ouvertpublic": "0",
    "prixsolidaires": "0",
    "hlm": "0",
    "qpv": "0"
  },
  {
    "title": "Jardin du cheminot de B\u00e9ziers",
    "img": false,
    "slug": "jardin-du-cheminot-de-beziers",
    "lat": "43.351846",
    "lng": "3.235165",
    "list_typeprojet": ["jardin-potager"],
    "list_typeactivite": [],
    "list_techniqueprod": [],
    "list_typeprod": [],
    "cp": "34500",
    "ville": "B\u00e9ziers",
    "ouvertpublic": "",
    "prixsolidaires": "",
    "hlm": "0",
    "qpv": "0"
  },
  {
    "title": "Jardin du cheminot de Coursan",
    "img": false,
    "slug": "jardin-du-cheminot-de-coursan",
    "lat": "43.234287",
    "lng": "3.054067",
    "list_typeprojet": ["jardin-potager"],
    "list_typeactivite": [],
    "list_techniqueprod": [],
    "list_typeprod": [],
    "cp": "11110",
    "ville": "Coursan",
    "ouvertpublic": "",
    "prixsolidaires": "",
    "hlm": "0",
    "qpv": "0"
  },
  {
    "title": "Jardin du cheminot Edouard Cuelar",
    "img": false,
    "slug": "jardin-du-cheminot-edouard-cuelar",
    "lat": "43.190828",
    "lng": "2.744617",
    "list_typeprojet": ["jardin-potager"],
    "list_typeactivite": [],
    "list_techniqueprod": [],
    "list_typeprod": [],
    "cp": "11200",
    "ville": "L\u00e9zignan-Corbi\u00e8res",
    "ouvertpublic": "",
    "prixsolidaires": "",
    "hlm": "0",
    "qpv": "0"
  },
  {
    "title": "Jardin des cheminots Villeneuve-les-B\u00e9ziers",
    "img": false,
    "slug": "jardin-des-cheminots-villeneuve-les-beziers",
    "lat": "43.310934",
    "lng": "3.282061",
    "list_typeprojet": ["jardin-potager"],
    "list_typeactivite": [],
    "list_techniqueprod": [],
    "list_typeprod": [],
    "cp": "34420",
    "ville": "Villeneuve les B\u00e9ziers",
    "ouvertpublic": "",
    "prixsolidaires": "",
    "hlm": "0",
    "qpv": "0"
  },
  {
    "title": "Jardin des espaces verts de l'universit\u00e9",
    "img": false,
    "slug": "jardin-des-espaces-verts-de-luniversite",
    "lat": "43.62994",
    "lng": "3.86926",
    "list_typeprojet": ["jardin-potager"],
    "list_typeactivite": [],
    "list_techniqueprod": [],
    "list_typeprod": [],
    "cp": "34000",
    "ville": "Montpellier",
    "ouvertpublic": "",
    "prixsolidaires": "",
    "hlm": "0",
    "qpv": "0"
  },
  {
    "title": "Jardin des Fontanilles",
    "img": false,
    "slug": "jardin-des-fontanilles",
    "lat": "44.51761",
    "lng": "3.50187",
    "list_typeprojet": ["jardin-potager"],
    "list_typeactivite": [],
    "list_techniqueprod": [],
    "list_typeprod": [],
    "cp": "48000",
    "ville": "Mende",
    "ouvertpublic": "",
    "prixsolidaires": "",
    "hlm": "0",
    "qpv": "0"
  },
  {
    "title": "Jardin des fourmis",
    "img": false,
    "slug": "jardin-des-fourmis",
    "lat": "42.69383",
    "lng": "2.88033",
    "list_typeprojet": ["jardin-potager"],
    "list_typeactivite": [],
    "list_techniqueprod": [],
    "list_typeprod": [],
    "cp": "66000",
    "ville": "Perpignan",
    "ouvertpublic": "",
    "prixsolidaires": "",
    "hlm": "0",
    "qpv": "0"
  },
  {
    "title": "Jardin des Ignames de la R\u00e9volution Communautaire",
    "img": false,
    "slug": "jardin-des-ignames-de-la-revolution-communautaire",
    "lat": "43.64832",
    "lng": "3.86694",
    "list_typeprojet": ["jardin-potager"],
    "list_typeactivite": [],
    "list_techniqueprod": [],
    "list_typeprod": [],
    "cp": "34000",
    "ville": "Montpellier",
    "ouvertpublic": "",
    "prixsolidaires": "",
    "hlm": "0",
    "qpv": "0"
  },
  {
    "title": "Jardin des Pr\u00e9s St Jean",
    "img": false,
    "slug": "jardin-des-pres-st-jean",
    "lat": "44.12678",
    "lng": "4.07421",
    "list_typeprojet": ["jardin-potager"],
    "list_typeactivite": [],
    "list_techniqueprod": [],
    "list_typeprod": [],
    "cp": "30100",
    "ville": "Al\u00e8s",
    "ouvertpublic": "",
    "prixsolidaires": "",
    "hlm": "0",
    "qpv": "0"
  },
  {
    "title": "Jardin des Shadoks",
    "img": false,
    "slug": "jardin-des-shadoks",
    "lat": "48.343681",
    "lng": "-1.302389",
    "list_typeprojet": ["jardin-potager"],
    "list_typeactivite": [],
    "list_techniqueprod": [],
    "list_typeprod": [],
    "cp": "34970",
    "ville": "Lattes",
    "ouvertpublic": "",
    "prixsolidaires": "",
    "hlm": "0",
    "qpv": "0"
  },
  {
    "title": "Jardin de Carabottes",
    "img": false,
    "slug": "jardin-de-carabottes",
    "lat": "43.643128",
    "lng": "3.504371",
    "list_typeprojet": ["jardin-potager"],
    "list_typeactivite": [],
    "list_techniqueprod": [],
    "list_typeprod": [],
    "cp": "34725",
    "ville": "Saint-Andr\u00e9 de Sangonis",
    "ouvertpublic": "",
    "prixsolidaires": "",
    "hlm": "0",
    "qpv": "0"
  },
  {
    "title": "Jardin de fajeolle",
    "img": false,
    "slug": "jardin-de-fajeolle",
    "lat": "43.218051",
    "lng": "2.358671",
    "list_typeprojet": ["jardin-potager"],
    "list_typeactivite": [],
    "list_techniqueprod": [],
    "list_typeprod": [],
    "cp": "11000",
    "ville": "Carcassonne",
    "ouvertpublic": "",
    "prixsolidaires": "",
    "hlm": "0",
    "qpv": "0"
  },
  {
    "title": "Jardin de la cit\u00e9 u du triolet",
    "img": false,
    "slug": "jardin-de-la-cite-u-du-triolet",
    "lat": "43.62819",
    "lng": "3.85989",
    "list_typeprojet": ["jardin-potager"],
    "list_typeactivite": [],
    "list_techniqueprod": [],
    "list_typeprod": [],
    "cp": "34000",
    "ville": "Montpellier",
    "ouvertpublic": "",
    "prixsolidaires": "",
    "hlm": "0",
    "qpv": "0"
  },
  {
    "title": "Jardin de la muraillette et du rebaut",
    "img": false,
    "slug": "jardin-de-la-muraillette-et-du-rebaut",
    "lat": "43.334908",
    "lng": "3.240748",
    "list_typeprojet": ["jardin-potager"],
    "list_typeactivite": [],
    "list_techniqueprod": [],
    "list_typeprod": [],
    "cp": "34500",
    "ville": "B\u00e9ziers",
    "ouvertpublic": "",
    "prixsolidaires": "",
    "hlm": "0",
    "qpv": "0"
  },
  {
    "title": "Jardin de la plaine de l'abbaye",
    "img": false,
    "slug": "jardin-de-la-plaine-de-labbaye",
    "lat": "43.965359",
    "lng": "4.806486",
    "list_typeprojet": ["jardin-potager"],
    "list_typeactivite": [],
    "list_techniqueprod": [],
    "list_typeprod": [],
    "cp": "30400",
    "ville": "Villeneuve les Avignon",
    "ouvertpublic": "",
    "prixsolidaires": "",
    "hlm": "0",
    "qpv": "0"
  },
  {
    "title": "Jardin de la prairie d'Al\u00e8s",
    "img": false,
    "slug": "jardin-de-la-prairie-dales",
    "lat": "44.13935",
    "lng": "4.08142",
    "list_typeprojet": ["jardin-potager"],
    "list_typeactivite": [],
    "list_techniqueprod": [],
    "list_typeprod": [],
    "cp": "30100",
    "ville": "Al\u00e8s",
    "ouvertpublic": "",
    "prixsolidaires": "",
    "hlm": "0",
    "qpv": "0"
  },